"Cidade","Geocode","Eficiencia_VRS","Efic_Norm_VRS","Eficiencia_CRS","Efic_Norm_CRS","Latitude","Longitude","x1","x2","x3","x4","x5","y1","y2","Iy3","Iy4","z1","z2","z3","z4","z5","z6","z7","z8","z9","Eficiencia_Bootstrap"
"Alta Floresta D'Oeste",1100015,1.06072630015959,0.551234624580252,1.19653703772318,0.553477592094149,-11.92,-61.99,372746.2,10980,134869,8550,9380,300860,109202,1.21289e-06,12801,0.78,0.18,0.004851005,0.21260274,0.89,0.248787249,3599,-11.92,-61.99,1.11582761663313
"Ariquemes",1100023,1,0.519676588105069,1.69222066178075,0.782764083054703,-9.91,-63.04,334255.7,7343,176546,7082,4325,177677,89480,1.04247e-06,27702,0.79,0.11,0.003073771,0.215229215,0.79,0.139002732,24.25,-9.91,-63.04,1.08681755086696
"Cabixi",1100031,1.40168570671898,0.728423245663364,1.41196247636452,0.653126118881012,-13.49,-60.54,113084.6,12605,99681.3,3085,8733,152915,17864,3.56196e-06,8837,0.78,0.29,0.000930233,0.253731343,0.89,0.24744186,4735,-13.49,-60.54,1.50022301303148
"Cacoal",1100049,1.14693527288981,0.59603540939273,1.25700679594005,0.581448858437958,-11.43,-61.44,221389.8,7180,87399,9410,6771,193675,31800,1.07294e-06,10577,0.88,0.1,0.003408495,0.195041816,0.9,0.133980073,23335,-11.43,-61.44,1.18532585507129
"Cerejeiras",1100056,0.999999999999925,0.51967658810503,1,0.462566201166099,-13.18,-60.81,126685.9,9260,132126.38,2182,1152,210069,28005.75,4.29722e-06,12463,0.7,0.23,0.002781641,0.242201835,0.93,0.218358832,6443,-13.18,-60.81,1.13449405463417
"Colorado do Oeste",1100064,1.20774226150218,0.627635377767753,1.23400044523756,0.570806898190812,-13.11,-60.54,139796.2,5857,71499,4891,3953,148326,26435,1.86161e-06,10637,0.84,0.33,0.004181601,0.248441674,0.94,0.203703704,12727,-13.11,-60.54,1.25381072717853
"Corumbiara",1100072,1,0.519676588105069,1.00000000000056,0.462566201166356,-12.96,-60.88,273085.6,12313,272712.24,5921,5690,570954,45951,1.40396e-06,9544,0.78,0.2,0.000671592,0.165649521,0.9,0.209536602,2829,-12.96,-60.88,1.13507390840555
"Costa Marques",1100080,1.59191639530536,0.827281680860809,1.63275591786685,0.755257702359137,-12.44,-64.22,220177.5,5944,63213,4425,7181,109717,61095.72,2.26414e-06,11976,0.69,0.37,0.001333333,0.260051326,0.9,0.262,3489,-12.44,-64.22,1.68139569999946
"Espigão D'Oeste",1100098,1.27329390948793,0.661701034537652,1.33872376098198,0.619248364528227,-11.52,-61.01,247330.8,5126,78388,6715,3503,151516,74188,1.22026e-06,9233,0.73,0.12,0.004,0.140319716,0.8,0.205,7311,-11.52,-61.01,1.33008520950632
"Guajará-Mirim",1100106,1.5486886742793,0.804817246286428,1.57276181037947,0.727506455966349,-10.78,-65.33,70487,1776,13155.67,2780,1068,31473,18728.12,3.83577e-06,16.16,0.83,0.44,0.004983389,0.253205128,0.84,0.068106312,1909,-10.78,-65.33,1.62812610714639
"Jaru",1100114,1.03333476395692,0.536999884503488,1.09238120318396,0.505298623382058,-10.43,-62.46,250653.2,6453,90571,8390,8066,219336,20160,9.23219e-07,9477,0.87,0.16,0.002254791,0.168777816,0.92,0.169673055,18977,-10.43,-62.46,1.07073958225358
"Ji-Paraná",1100122,1.22458259921405,0.636386907012395,1.30081969186569,0.601715223268369,-10.88,-61.94,215375,6163,81614.71,7803,3212,168837,29841,1.1534e-06,10825,0.78,0.29,0.003144654,0.293776371,0.93,0.167845912,19236,-10.88,-61.94,1.285012043317
"Machadinho D'Oeste",1100130,1.53252104172038,0.796415306160473,1.8762229487028,0.867877321922113,-9.44,-61.98,300761.5,8941,87130,11820,9841,144898,78321,1.39854e-06,8559,0.9,0.1,0.004213483,0.130510949,0.93,0.189840824,4537,-9.44,-61.98,1.58746098971663
"Nova Brasilândia D'Oeste",1100148,1.03097360825499,0.535772847164327,1.10672000083731,0.511931266541855,-11.72,-62.33,156002.3,3723,45952,7851,2787,123603,37565,2.36771e-06,6568,0.88,0.11,0.001993356,0.194228126,0.89,0.255481728,12.77,-11.72,-62.33,1.06055541411653
"Ouro Preto do Oeste",1100155,1.11590312065634,0.579908726398487,1.1385055294067,0.526634177744254,-10.71,-62.24,152422.1,4728,76426,6038,6081,165698,16372,1.3386e-06,9325,0.77,0.28,0.003705419,0.172585227,0.85,0.193144975,20184,-10.71,-62.24,1.16045691148843
"Pimenta Bueno",1100189,0.999999999999923,0.519676588105029,1,0.462566201166099,-11.67,-61.19,274320.6,5268,42670.27,2898,1408,112042,111090,1.71179e-06,7266,0.73,0.12,0,0.250442478,0.96,0.143432716,6097,-11.67,-61.19,1.09153242551907
"Porto Velho",1100205,1,0.519676588105069,1.49973434521618,0.693726418824973,-8.76,-63.9,778218.1,18999,163504,16985,11719,339123,327982,5.01812e-07,17231,0.73,0.24,0.020475179,0.234816597,0.96,0.112227159,15237,-8.76,-63.9,1.12278581973165
"Presidente Médici",1100254,1.04522419771208,0.543178544871872,1.11372995988308,0.515173836667987,-11.17,-61.9,124133.7,5369,69117,6621,7858,164760,16097,1.80584e-05,10932,0.79,0.29,0.00760095,0.232655922,0.94,0.217102138,12581,-11.17,-61.9,1.08028680273288
"Rio Crespo",1100262,1,0.519676588105069,1,0.462566201166099,-9.7,-62.9,136002.6,5319,52204.4,1685,7652,107602,51709.76,3.80826e-06,24667,0.66,0.14,0.00203252,0.351123596,0.92,0.223577236,2229,-9.7,-62.9,1.13063786866982
"Rolim de Moura",1100288,1.22435310451303,0.636267643989181,1.26384125223482,0.584610246923267,-11.73,-61.77,123887,5219,74164,5634,3791,148091,18248,2.02709e-06,13269,0.8,0.22,0.001472031,0.238493724,0.91,0.158488714,39148,-11.73,-61.77,1.28900376686244
"Santa Luzia D'Oeste",1100296,1.34683678737488,0.699919546397368,1.39922537964278,0.647234368436552,-11.9,-61.77,84667.4,3365,1336879,3214,1026,88624,13613,2.77293e-06,11123,0.85,0.26,0.001955034,0.158730159,0.87,0.223851417,6844,-11.9,-61.77,1.44871578528202
"Vilhena",1100304,1.03510899933851,0.537921913093089,1.1093187659602,0.513133367452474,-12.74,-60.14,250109.5,13361,167566,4970,5408,285441,107301,3.03578e-06,16721,0.72,0.27,0.00443038,0.323917138,0.91,0.112658228,8174,-12.74,-60.14,1.10080299126972
"São Miguel do Guaporé",1100320,1.15426080752832,0.599842318239717,1.23361505384262,0.570628629157294,-11.68,-62.68,190475.5,8346,83620,6938,7688,182272,44298,1.95635e-06,10256,0.85,0.11,0.002814636,0.188976378,0.93,0.277844793,3241,-11.68,-62.68,1.18858251356427
"Nova Mamoré",1100338,1.72535852000964,0.896628428936621,1.8171228312171,0.840539605088282,-10.41,-65.33,251317.7,6863,110869.91,6366,2175,133802,55607.22,7.65441e-07,8335,0.9,0.11,0.003306566,0.13626943,0.99,0.302786963,2869,-10.41,-65.33,1.85407352645233
"Alvorada D'Oeste",1100346,1.34009053088761,0.696413674843582,1.38011074672227,0.638392585299827,-11.4,-62.38,148755.3,3989,58281,6026,2708,111055,27532,1.85049e-06,11732,0.82,0.22,0.001643836,0.237605239,0.92,0.219726027,5529,-11.4,-62.38,1.39805054010098
"Alto Alegre dos Parecis",1100379,1.10644938310662,0.574995840323807,1.17085808790557,0.541599377827084,-12.12,-61.85,144820.6,3782,50152,7445,5885,121371,33718,2.44551e-06,10322,0.79,0.18,0.002025317,0.137387387,0.84,0.220253165,3548,-12.12,-61.85,1.13581828397956
"Alto Paraíso",1100403,1.48669138808608,0.772598708125762,1.66942116807109,0.772217807860918,-9.71,-63.32,195633.6,11212,61960,6989,2359,105469,46491.3,3.94404e-06,17328,0.85,0.08,0.001145475,0.180591819,0.87,0.174875907,7887,-9.71,-63.32,1.58730954310681
"Buritis",1100452,1.35606478636703,0.704715121428645,1.49573825891921,0.691877964367055,-10.21,-63.82,237349.9,8192,88821,9261,2615,157516,41682,3.06227e-06,11107,0.84,0.08,0.000706714,0.136324042,0.94,0.263250883,11955,-10.21,-63.82,1.42534899301105
"Novo Horizonte do Oeste",1100502,1.19404457657488,0.620517011599793,1.19817233608515,0.554234025845218,-11.71,-62,69660.6,1824,29506,4172,2073,64315,11928,3.29184e-06,7776,0.82,0.28,0.006681515,0.318138652,0.94,0.262806236,11917,-11.71,-62,1.24944182537919
"Cacaulândia",1100601,1.47624654113882,0.767170765700932,1.47687689380964,0.683153334359513,-10.34,-62.89,170892.9,5447,106029.31,2707,5506,138574,47423,1.93368e-06,8959,0.61,0.34,0.027685493,0.265586035,0.92,0.255813953,3293,-10.34,-62.89,1.57744059385871
"Campo Novo de Rondônia",1100700,1.16725888515368,0.606597114871992,1.22702114927062,0.567578511768574,-10.57,-63.62,196864.6,6537,55067,5857,1841,123271,39827,1.16098e-06,9.97,0.87,0.06,0.001564129,0.137227305,0.99,0.306569343,4208,-10.57,-63.62,1.21307111579688
"Candeias do Jamari",1100809,1.34125572420328,0.697019198530353,1.52032548655678,0.703251184852571,-8.79,-63.7,182932.6,8857,70393,3793,2542,92446,76484.24,2.2235e-06,16378,0.75,0.21,0,0.253061225,0.98,0.229032258,3692,-8.79,-63.7,1.41811489876648
"Castanheiras",1100908,0.999999999999973,0.519676588105055,1.11811789151482,0.517203545533857,-11.42,-61.95,52055.8,1253,22693.75,1345,2521,45611,11522.46,4.51361e-06,8545,0.78,0.32,0.003466205,0.255591054,0.9,0.149046794,3976,-11.42,-61.95,1.13644334165393
"Chupinguaia",1100924,1,0.519676588105069,0.999999999999952,0.462566201166077,-12.55,-60.9,352499.8,12338,208696.7,3331,8375,469825,103143.31,1.38013e-06,7561,0.66,0.35,0.000956938,0.275782155,0.63,0.219138756,2066,-12.55,-60.9,1.13398886849592
"Cujubim",1100940,1.52300604393561,0.791470584575855,1.57392905627171,0.728046384464549,-9.36,-62.58,194385.5,7111,78945,5678,3297,132148,55397.84,2.46835e-06,9647,0.74,0.17,0.001581444,0.191682911,0.96,0.186610438,5808,-9.36,-62.58,1.60223132910094
"Governador Jorge Teixeira",1101005,1.10731495668038,0.575445658645373,1.12183856051088,0.518924601257161,-10.6,-62.73,132212.4,3703,49517,4644,1365,112965,19501.21,1.75697e-06,7977,0.92,0.19,0,0.145315488,0.96,0.249261666,1923,-10.6,-62.73,1.16968966815773
"Itapuã do Oeste",1101104,1,0.519676588105069,1,0.462566201166099,-9.2,-63.18,84682.2,3172,36808,3079,137,69690,24770.88,5.54865e-06,14079,0.81,0.43,0.001308901,0.306338028,0.98,0.209424084,2526,-9.2,-63.18,1.14201260481518
"Ministro Andreazza",1101203,1.05394997565921,0.547713127384001,1.07101479855392,0.495415246759762,-11.19,-61.51,60545,1598,29850.98,3616,1688,68064,10205.14,3.66375e-06,8312,0.81,0.16,0.019983347,0.190369541,0.84,0.236469609,13471,-11.19,-61.51,1.12294742382159
"Mirante da Serra",1101302,1.35447200923352,0.703887392442294,1.35607877624618,0.627276208010169,-11.02,-62.67,56422.8,2269,29746,3516,1859,59315,8640,3.9533e-06,11519,0.81,0.22,0.000805153,0.21215733,0.88,0.201288245,10285,-11.02,-62.67,1.42848583804701
"Monte Negro",1101401,1.61538021707157,0.83947527970018,1.61727473896633,0.748096632245552,-10.24,-63.29,143393.3,3748,52636.76,3978,2966,84643,31804.91,1.67507e-06,9192,0.81,0.2,0.005791506,0.208034433,0.95,0.166023166,8381,-10.24,-63.29,1.69042765055633
"Nova União",1101435,1.14953991157068,0.597388979135654,1.18209832231875,0.546798730359805,-10.9,-62.56,61656.7,3085,32770,4569,2988,80461,4836,8.27839e-05,14.31,0.78,0.29,0,0.183823529,0.86,0.204758472,9626,-10.9,-62.56,1.19367713426284
"Parecis",1101450,1.29700416490093,0.67402269917378,1.30563705425559,0.603943572288703,-12.17,-61.6,131376.4,2955,38167.44,2491,1925,78027,31634.38,2.80104e-06,7435,0.82,0.27,0,0.345345345,0.98,0.247663551,2316,-12.17,-61.6,1.37664330441549
"Pimenteiras do Oeste",1101468,1,0.519676588105069,1,0.462566201166099,-13.48,-61.04,207431.6,7457,92791.42,1281,2098,175039,75359.82,3.53552e-06,12184,0.56,0.57,0.006578947,0.270833333,0.89,0.292763158,0.4,-13.48,-61.04,1.13551894132169
"Primavera de Rondônia",1101476,0.999999999999881,0.519676588105007,1.06864279483889,0.494318038012146,-11.82,-61.32,64398.5,2289,18884.26,979,1320,39226,18815,6.71189e-06,9646,0.77,0.39,0,0.302752294,0.86,0.224438903,5632,-11.82,-61.32,1.13858772751535
"São Felipe D'Oeste",1101484,1.00000000000012,0.51967658810513,1.0159392807367,0.469939173705795,-11.9,-61.5,41452.4,1199,16864,2260,954,44949,5291.07,4.7705e-06,11781,0.83,0.33,0.012547051,0.149643706,0.97,0.274780427,11066,-11.9,-61.5,1.07277133986577
"São Francisco do Guaporé",1101492,1.46806243907679,0.762917679464633,1.52454198980256,0.705201596741176,-12.06,-63.56,255019.9,6253,81233,6136,4836,143014,52056.76,1.13262e-06,12.9,0.79,0.11,0.003076923,0.23238255,0.94,0.142051282,1797,-12.06,-63.56,1.53165163047333
"Seringueiras",1101500,1.11780560860557,0.580897404844853,1.15008380108936,0.531989894892572,-11.79,-63.03,117576.1,4034,43951,5166,2698,111245,26679.15,2.28048e-06,8906,0.86,0.09,0.003577818,0.13261944,0.93,0.158616577,3353,-11.79,-63.03,1.15618641425985
"Teixeirópolis",1101559,1.04230134118275,0.541659604763187,1.06524433265352,0.492746024269255,-10.91,-62.24,40241.6,1537,20362.72,2273,1829,51473,3284.96,4.91776e-06,8368,0.85,0.27,0,0.162162162,0.93,0.176151762,10.72,-10.91,-62.24,1.10340689540182
"Theobroma",1101609,1.09907488465975,0.571163486131953,1.15485905300028,0.53419876502862,-10.24,-62.35,219206.6,3665,59474,5219,2397,132983,50301,1.78512e-06,6864,0.89,0.09,0.000462963,0.178501946,0.94,0.13287037,5165,-10.24,-62.35,1.14589354986372
"Urupá",1101708,1.03719932878976,0.53900820837033,1.0388651159783,0.480543890222063,-11.12,-62.37,56977.3,2291,26049.26,4229,1761,74274,4626,2.78351e-06,7539,0.91,0.13,0.00616143,0.14715948,0.98,0.247073321,15755,-11.12,-62.37,1.08201028132234
"Vale do Anari",1101757,1.50322880942961,0.781192818825625,1.58600954370444,0.733634409644539,-9.86,-62.18,120711.5,4057,34607.69,5544,2474,71703,20535,3.38278e-06,11596,0.87,0.19,0.001171646,0.214805023,0.97,0.246045694,3556,-9.86,-62.18,1.55603489780652
"Vale do Paraíso",1101807,0.999999999999922,0.519676588105029,0.999999999999301,0.462566201165776,-10.44,-62.13,73342,2136,32831.85,2974,446,68953,9682,2.87525e-06,6924,0.81,0.14,0,0.150815217,0.95,0.193205945,8333,-10.44,-62.13,1.09486710847277
"Acrelândia",1200013,1.67609092984121,0.871025215773734,1.68121948593121,0.777675310933624,-9.82,-66.88,152246.3,4310,29674,4198,3482,61205,55673,2.71061e-06,12718,0.84,0.08,0.000683995,0.194219653,0.94,0.265389877,7946,-9.82,-66.88,1.77362354128612
"Assis Brasil",1200054,1,0.519676588105069,0.999999999999122,0.462566201165693,-10.94,-69.56,69946.6,197,1,1682,237,10162,54329,1.08916e-05,13429,0.91,0.16,0.003824092,0.17062635,0.96,0.185468451,1404,-10.94,-69.56,1.12881153873965
"Brasiléia",1200104,1.11698189301455,0.580469339136941,1.28788698506723,0.595732990213809,-11.01,-68.74,337267.4,3822,36711,8000,2426,84631,237025.96,2.32625e-06,14102,0.84,0.13,0.008095238,0.170601676,0.89,0.146666667,6323,-11.01,-68.74,1.19022044062508
"Bujari",1200138,1.34445189233917,0.698680172282221,1.45004790005916,0.670743148639245,-9.83,-67.95,264480.4,3866,48423.07,4679,4244,83472,146393.6,2.657e-06,13949,0.79,0.12,0,0.226107226,0.7,0.02991453,3184,-9.83,-67.95,1.43014188485648
"Capixaba",1200179,1.40981439478628,0.732647534543945,1.55893927638216,0.721112618924724,-10.57,-67.67,156800.3,2725,34609.46,3980,4696,62277,67883,3.1455e-06,15059,0.86,0.05,0.000775795,0.191122072,0.83,0.03878976,6543,-10.57,-67.67,1.5023765194008
"Cruzeiro do Sul",1200203,1,0.519676588105069,1.09433896551164,0.506204218064759,-7.63,-72.66,132413.4,2284,19978,9421,1210,70388,90000.52,1.27949e-05,17835,0.87,0.06,0,0.154148643,0.66,0.045955882,9411,-7.63,-72.66,1.06318109171835
"Epitaciolândia",1200252,1.34217266052688,0.697495708870514,1.35893758772458,0.62859859757558,-11.02,-68.74,172858.4,2939,20804.01,4525,1339,52643,105171,3.9678e-06,15204,0.88,0.02,0.001375516,0.220156556,0.98,0.106602476,10479,-11.02,-68.74,1.43582961373236
"Feijó",1200302,1.00000000000043,0.519676588105292,1.43246620275979,0.662610449709424,-8.16,-70.35,346174.7,4496,13385,12276,2880,54233,248327.13,4.1462e-06,11852,0.87,0.17,0.001347709,0.178148921,0.77,0.086590297,1157,-8.16,-70.35,1.07328103416308
"Jordão",1200328,1.00000000000026,0.519676588105207,1,0.462566201166099,-9.43,-71.88,20681.8,964,1774.01,1841,30,4036,15580.13,6.03522e-05,14563,0.95,0.06,0,0.17184265,0.87,0.018595041,1467,-9.43,-71.88,1.13668299750308
"Mâncio Lima",1200336,1,0.519676588105069,1,0.462566201166099,-7.61,-72.89,34150.9,777,7256.51,3660,150,23800,19892.8,2.90929e-05,12.46,0.87,0.17,0.006433824,0.229862475,0.55,0.056066176,3285,-7.61,-72.89,1.09881728300603
"Manoel Urbano",1200344,1.2449871262078,0.646990661982407,1.34179973561359,0.620671206428454,-8.83,-69.26,86082,1407,4985.86,2944,210,11417,59272,1.15056e-05,13126,0.82,0.04,0,0.159445407,0.74,0.066666667,0.84,-8.83,-69.26,1.3372747569188
"Marechal Thaumaturgo",1200351,1.00024319430706,0.51980297049281,1.00024319430778,0.462678694633193,-8.94,-72.79,36255.4,934,1,4740,433,17720,25017.3,3.56245e-05,15322,0.9,0.23,0.004770423,0.146011396,0.29,0.019081694,2185,-8.94,-72.79,1.0789312504917
"Plácido de Castro",1200385,1.67634614323439,0.871157844199142,1.69404115799166,0.783606183071221,-10.33,-67.18,165280.6,5278,47129,4728,2060,79875,43158,2.63663e-06,13901,0.79,0.09,0.002228826,0.239490446,0.98,0.230312036,9522,-10.33,-67.18,1.78924955591708
"Porto Walter",1200393,1.22638553819245,0.63732385218925,1.3018878382776,0.602209311696414,-8.26,-72.74,37392.1,781,2462.93,2511,336,12380,28407.15,5.06171e-05,7858,0.95,0.18,0.016129032,0.113780025,0.27,0.008960573,1762,-8.26,-72.74,1.31478753913894
"Rio Branco",1200401,1.00000000000021,0.519676588105176,1.29005073986276,0.596733870049834,-9.97,-67.8,512654.5,12143,100503,14004,6419,231963,304978,1.23193e-06,16136,0.75,0.11,0.008280565,0.264091858,0.98,0.11349245,43401,-9.97,-67.8,1.08371594949323
"Rodrigues Alves",1200427,0.999999999999616,0.51967658810487,1,0.462566201166099,-7.74,-72.64,46308.6,482,7348.11,4865,284,27843,24964.62,2.8804e-05,12082,0.9,0.11,0.002321981,0.180131004,0.78,0.03869969,5832,-7.74,-72.64,1.13896601019232
"Santa Rosa do Purus",1200435,1.00000000000001,0.519676588105075,1,0.462566201166099,-9.43,-70.49,28048.6,412,2227.98,2954,29,7496,19479.26,6.21359e-05,14956,0.79,0.16,0,0.265923567,0.49,0.012658228,1014,-9.43,-70.49,1.1352445855108
"Senador Guiomard",1200450,1.35854163841816,0.706002283451819,1.38814676010485,0.642109773482728,-10.15,-67.73,177215,5249,57322.75,4790,4216,117012,42514.51,1.86271e-06,15765,0.74,0.15,0.006189821,0.238938053,0.96,0.08872077,9282,-10.15,-67.73,1.4227656674028
"Sena Madureira",1200500,1,0.519676588105069,1.36871967486889,0.633123460465402,-9.06,-68.65,378724.2,6037,34366,10404,4213,103443,234693,1.75947e-06,12363,0.79,0.04,0,0.145330535,0.83,0.143922446,1816,-9.06,-68.65,1.05006049064555
"Tarauacá",1200609,0.999999999999815,0.519676588104973,1.38840284172418,0.642228228184573,-8.16,-70.76,377806.6,4504,17773.68,10120,6695,63273,260781,3.15234e-06,13888,0.88,0.07,0.002410468,0.126926196,0.76,0.09607438,1984,-8.16,-70.76,1.06030689166017
"Xapuri",1200708,1,0.519676588105069,1,0.462566201166099,-10.65,-68.5,494036,2506,27328,5520,2651,69403,375763,2.30045e-06,18581,0.79,0.13,0.013248543,0.174757282,0.9,0.1054584,3399,-10.65,-68.5,1.13540269733111
"Porto Acre",1200807,1.03477778953109,0.537749791110423,1.06754034730012,0.493808083042154,-9.58,-67.53,205876.2,4768,42728,4672,1634,114215,91830,2.32856e-06,15259,0.75,0.28,0.003166561,0.231818182,0.89,0.145661811,6702,-9.58,-67.53,1.08253710585446
"Alvarães",1300029,0.999999999999453,0.519676588104785,0.999999999999816,0.462566201166014,-3.22,-64.8,8686.5,864,1748.13,5153,622,15559,2507.83,0.000277797,16324,0.93,0.15,0.000998004,0.172727273,0.68,0.106786427,2686,-3.22,-64.8,1.08205103737093
"Amaturá",1300060,0.999999999999998,0.519676588105068,1,0.462566201166099,-3.36,-68.19,6340.5,59,731752,2515,195,8702,5133.79,0.000297385,19.13,0.93,0.14,0,0.189690722,0.24,0.046468401,2365,-3.36,-68.19,1.14449329144517
"Anamã",1300086,1.00000000000011,0.519676588105126,1,0.462566201166099,-3.57,-61.4,14032.1,666,1340.47,1645,322,12237,11410.58,0.000497597,17646,0.86,0.13,0.008038585,0.222222222,0.67,0.109324759,5306,-3.57,-61.4,1.13336305429846
"Anori",1300102,1,0.519676588105069,1,0.462566201166099,-3.77,-61.64,21664,1320,1,2931,1728,14815,18564.9,0.000302152,16106,0.91,0.13,0,0.197860963,0.83,0.069425901,3346,-3.77,-61.64,1.13564882029302
"Apuí",1300144,1.15379059975595,0.599597962268872,1.16783659580672,0.540201737705065,-7.19,-59.89,338777.4,7326,33487,3695,4287,57673,205608.06,3.46036e-06,13897,0.69,0.26,0.002749771,0.235418876,0.95,0.125572869,0.4,-7.19,-59.89,1.23133065510373
"Atalaia do Norte",1300201,1,0.519676588105069,1.00000000000001,0.462566201166103,-4.37,-70.19,12616.8,384,1,5080,161,9503,1875.41,0.000330594,11741,0.96,0.02,0,0.083950617,0.74,0.002396166,0.25,-4.37,-70.19,1.13848947768359
"Autazes",1300300,1.12841148397686,0.586409029971671,1.34785953917864,0.623474266743354,-3.57,-59.13,169558,3837,15259,10047,3353,68501,98817.95,6.69584e-06,15363,0.8,0.08,0.005807201,0.210357286,0.83,0.041811847,5025,-3.57,-59.13,1.19901610152514
"Barcelos",1300409,1,0.519676588105069,0.999999999999833,0.462566201166022,-0.97,-62.92,7666.4,1308,1322.15,2747,978,13178,5240.16,0.000235678,16392,0.93,0.09,0.003218884,0.076601671,0.88,0.042918455,0.23,-0.97,-62.92,1.13592072569
"Barreirinha",1300508,1.51751912216812,0.788619159792526,2.16185271963033,1,-2.79,-57.06,49255.9,9675,5951.99,7314,2868,24525,18250,1.31607e-05,16699,0.95,0.04,0,0.234988881,0.77,0.057631412,5484,-2.79,-57.06,1.62658174132712
"Benjamin Constant",1300607,0.999999999999929,0.519676588105032,1,0.462566201166099,-4.38,-70.03,5686.9,1020,1,4007,143,21039,2460.62,0.00045011,15808,0.96,0.13,0.000826446,0.277218664,0.99,0.023966942,4753,-4.38,-70.03,1.13874889431906
"Beruri",1300631,0.999999999999978,0.519676588105057,0.999999999999762,0.462566201165989,-3.89,-61.37,28382.2,1407,1,3756,651,18405,22619.29,0.000243785,17584,0.92,0.12,0.005899705,0.159744409,0.56,0.033431662,1086,-3.89,-61.37,1.11043863587172
"Boa Vista do Ramos",1300680,1,0.519676588105071,1.08203024846973,0.500510621581454,-2.97,-57.59,50141.1,533,3374.35,6098,314,16927,30024.67,3.11143e-05,16894,0.79,0.06,0.00536193,0.171245421,0.96,0.051831993,7138,-2.97,-57.59,1.0862813119176
"Boca do Acre",1300706,1.16008083723941,0.602866851422649,1.57028696321153,0.726361675313407,-8.75,-67.39,330680.8,5132,27452.86,9425,4741,79759,171024.18,2.39614e-06,16762,0.91,0.06,0.000592944,0.178530643,0.71,0.06581678,1558,-8.75,-67.39,1.22073876486815
"Borba",1300805,1.00000000000005,0.519676588105096,1.29346274525068,0.59831214842048,-4.38,-59.59,39667.3,1641,3702.74,8701,723,23895,26403.59,4.77655e-05,30353,0.92,0.13,0,0.134938002,0.72,0.035796767,0.92,-4.38,-59.59,1.13111690900907
"Caapiranga",1300839,1.00000000000003,0.519676588105085,1,0.462566201166099,-3.32,-61.2,3619.1,206,242353,620,46,3935,2619.11,0.000166729,12767,0.86,0.08,0.009389671,0.125,0.54,0.023474178,1356,-3.32,-61.2,1.13444008996282
"Canutama",1300904,0.999999999999849,0.519676588104991,1.00000000000008,0.462566201166138,-6.53,-64.38,157963.3,3191,12817.33,4168,1777,72415,110833.75,1.75639e-05,24733,0.7,0.08,0.000971817,0.201793722,0.63,0.064139942,0.46,-6.53,-64.38,1.1248276694384
"Carauari",1301001,1.00000000000046,0.519676588105307,1.00000000000044,0.462566201166302,-4.88,-66.89,266089.9,1097,3817.92,4026,364,22730,258521.66,8.4638e-05,14299,0.86,0.04,0.002657807,0.195255475,0.35,0.012624585,1099,-4.88,-66.89,1.13253377262821
"Careiro",1301100,1.32501229133049,0.688577866755908,1.44905217886652,0.670282561669743,-3.76,-60.36,95427.6,2271,13338,8397,806,37996,61501.94,1.89687e-05,18.91,0.82,0.09,0,0.191850594,0.87,0.079441292,6135,-3.76,-60.36,1.40998438102006
"Careiro da Várzea",1301159,0.999999999999916,0.519676588105025,1.07469946179999,0.497119647440074,-3.22,-59.82,64704.5,2597,14976,5976,1054,62477,22018.7,7.97523e-06,31721,0.87,0.1,0.003800217,0.212824011,0.84,0.045602606,11.11,-3.22,-59.82,1.12499932969616
"Coari",1301209,1,0.519676588105069,1.18863650906023,0.549823074563324,-4.08,-63.14,73094,3340,4840.28,8782,670,42274,59697.47,0.000113071,19684,0.94,0.06,0.001840773,0.134674923,0.83,0.067648412,1462,-4.08,-63.14,1.10584850384169
"Codajás",1301308,1,0.519676588105069,1.06355052880396,0.491962527857045,-3.83,-62.05,69653.4,1590,2464,3878,706,23911,61019.09,0.000112121,19168,0.87,0.29,0.000884956,0.158469945,0.86,0.115044248,1487,-3.83,-62.05,1.07221112705279
"Eirunepé",1301407,1.92427371732555,1,2.11937508895742,0.980351283745095,-6.65,-69.87,13469.7,1762,3157.59,4641,874,14859,2015.67,3.78485e-05,19.43,0.96,0.32,0,0.100137174,0.55,0.063688213,2331,-6.65,-69.87,2.04653389139653
"Envira",1301506,1.09615588950482,0.569646552689144,1.27519108648686,0.589860296637096,-7.43,-70.02,70561.1,1090,3300.3,5885,1607,21349,48552.85,2.21282e-05,19005,0.64,0.3,0,0.109295199,0.79,0.045719844,2597,-7.43,-70.02,1.16993484684698
"Fonte Boa",1301605,1,0.519676588105069,1,0.462566201166099,-2.51,-66.09,917.5,1671,1927.32,4683,1530,11057,43553,0.000163617,19165,0.94,0.19,0,0.141230068,0.92,0.039727582,1618,-2.51,-66.09,1.14002548677826
"Guajará",1301654,1,0.519676588105069,0.999999999999676,0.462566201165949,-7.54,-72.58,69580.1,1047,1,4124,725,24605,42253.9,1.78544e-05,10185,0.9,0.09,0.001054852,0.117829457,0.92,0.034810127,2154,-7.54,-72.58,1.13038344854769
"Humaitá",1301704,1.08147308545714,0.56201624317783,1.23399497378924,0.570804367283747,-7.5,-63.02,88209.2,2514,11333,2571,852,27571,55005.4,1.92001e-05,18201,0.85,0.13,0,0.155477032,0.7,0.0546875,1612,-7.5,-63.02,1.15227599443832
"Ipixuna",1301803,2.38392592464661,0.710001985054147,3.27433320232377,0.602321774727882,-7.05,-71.69,27308.8,794,3549.48,4233,738,17478,8281.11,3.52212e-05,15.02,0.81,0.14,0,0.1179941,0.65,0.042766151,2337,-7.05,-71.69,2.58934239149229
"Iranduba",1301852,0.999999999999995,0.297828878705362,2.29187112078904,0.42159541977632,-3.28,-60.18,24300.3,3873,27304,5700,1707,99207,13863,4.73958e-05,41958,0.79,0.3,0.001429593,0.289915966,0.88,0.088634739,21385,-3.28,-60.18,1.18553493519478
"Itacoatiara",1301902,1.21524784222543,0.361935902199112,2.73767144825845,0.503601504015115,-3.14,-58.44,146627.8,4636,27867,10505,2711,101535,92119,8.30381e-06,27665,0.85,0.15,0.008599509,0.214070352,0.93,0.084766585,11.23,-3.14,-58.44,1.32979169966543
"Itamarati",1301951,1,0.297828878705363,1,0.183952498878372,-6.42,-68.25,6785.7,97,1,2060,401,11135,2420.32,0.000182413,8597,0.86,0.26,0,0.0609319,0.56,0.008762322,0.32,-6.42,-68.25,1.1899294951277
"Itapiranga",1302009,1,0.297828878705363,1,0.183952498878372,-2.74,-58.02,11538.3,373,1,746,52,3737,7826.8,0.000113101,16582,0.96,0.23,0,0.339712919,0.95,0.128318584,2105,-2.74,-58.02,1.19191687554914
"Japurá",1302108,0.999999999999998,0.297828878705363,1,0.183952498878372,-1.82,-66.59,3041.8,257,771886,1256,8,4616,2043.09,0.000282792,13581,0.82,0.15,0,0.170818505,0.89,0.023178808,0.08,-1.82,-66.59,1.18962070921046
"Juruá",1302207,0.999999999999516,0.297828878705219,0.999999999999978,0.183952498878368,-3.48,-66.06,2181.7,634,1,3176,21,3142,161878,0.000248565,9637,0.89,0.01,0,0.139726027,0.87,0.014354067,0.72,-3.48,-66.06,1.19465131293161
"Jutaí",1302306,1.52481683370816,0.454134487814364,1.97826266818408,0.363906361250259,-2.74,-66.76,6092.3,2140,1836.14,4245,633,14320,1001.9,0.000188541,27.17,0.94,0.03,0,0.122040073,0.49,0.01,0.23,-2.74,-66.76,1.69395765432142
"Lábrea",1302405,1.17569374732551,0.350155550466862,2.84894628709045,0.52407078868055,-7.25,-64.79,346270.1,7247,28518.69,9397,3825,102162,124936.13,1.56962e-06,27529,0.86,0.07,0.004876067,0.118987342,0.74,0.057293783,0.66,-7.25,-64.79,1.25636856356937
"Manacapuru",1302504,1.38032833126549,0.411101639146046,2.924218319497,0.537917267137389,-3.29,-60.62,55464.8,3197,19881.7,8384,5121,69227,38563.74,2.70774e-05,23241,0.89,0.1,0.003818413,0.172897196,0.89,0.089096309,13148,-3.29,-60.62,1.5147621814545
"Manaquiri",1302553,1.13532057132493,0.338131252728836,3.51007282797503,0.645686667951082,-3.42,-60.45,39161.7,431,2679.07,4784,337,14978,28219.57,5.2797e-05,17739,0.96,0.16,0.003903201,0.202898551,0.93,0.022638564,7606,-3.42,-60.45,1.23792856805352
"Manaus",1302603,1,0.297828878705363,2.79461722861316,0.514076822611942,-3.1,-60.02,42006,5554,68148,7949,3625,172366,31529,4.19297e-05,33512,0.62,0.26,0.005661348,0.372894948,0.64,0.064333505,186847,-3.1,-60.02,1.17434774954373
"Manicoré",1302702,1.2624731035635,0.376000948829996,2.66897557311111,0.490964726119126,-5.8,-61.29,210856.8,5227,32837,10836,5863,118617,113052.23,4.24068e-06,16558,0.87,0.09,0.006415094,0.231595092,0.67,0.101132075,1132,-5.8,-61.29,1.33979428006545
"Maraã",1302801,1.00000000000005,0.297828878705377,0.999999999999982,0.183952498878369,-1.85,-65.58,4185.9,969,1,2626,707,14340,1478.88,0.000195914,12975,0.94,0.05,0,0.191318328,0.92,0.011034483,1101,-1.85,-65.58,1.17891427648773
"Maués",1302900,1.70282045753108,0.507149107503036,3.88211287598963,0.714124364466198,-3.38,-57.71,134043.4,2968,9129,8447,1823,35289,87276.85,2.9478e-05,14991,0.84,0.13,0.007307476,0.153072626,0.96,0.084879146,1556,-3.38,-57.71,1.83523620510754
"Nhamundá",1303007,1.26696844127878,0.377339790221142,3.99223033638785,0.73438074647659,-2.18,-56.71,53425.6,1507,4755,7388,427,22753,11749.12,1.80401e-05,21399,0.9,0.04,0.003039514,0.19865643,0.78,0.112462006,1482,-2.18,-56.71,1.39241697710892
"Nova Olinda do Norte",1303106,1,0.297828878705363,2.59943771886483,0.478173064063881,-3.88,-59.09,45187.1,1323,3408,6396,273,27891,29166.61,4.08739e-05,26225,0.88,0.21,0,0.219432314,0.91,0.024425287,6531,-3.88,-59.09,1.14510305307225
"Novo Airão",1303205,1,0.297828878705363,1,0.183952498878372,-2.62,-60.94,7582.9,827,1,1740,1378,4324,6562.42,0.000354149,14329,0.87,0.17,0,0.145038168,0.92,0.058091286,0.49,-2.62,-60.94,1.19206029205324
"Novo Aripuanã",1303304,1.62821270075049,0.484928762958351,3.2494177685249,0.59773851841994,-5.12,-60.38,124909.4,1977,10336.62,3557,1400,32040,71226.62,2.4731e-05,14096,0.88,0.15,0.022862823,0.117021277,0.8,0.051689861,0.61,-5.12,-60.38,1.75605106145392
"Parintins",1303403,1.11748709955499,0.33281992982817,2.63986866460605,0.485610437564995,-2.62,-56.73,126998.3,2082,11906.1,11422,3511,64523,40871.85,7.63072e-06,23926,0.88,0.1,0.001458789,0.290240811,0.78,0.031728665,19111,-2.62,-56.73,1.20926358561801
"Pauini",1303502,1,0.297828878705363,1.99010073059286,0.366084002412231,-7.71,-66.97,29456,123,1508.04,5281,297,11859,13025.91,4.77076e-05,15917,0.95,0.18,0,0.10082769,0.94,0.012765957,0.47,-7.71,-66.97,1.11952611803212
"Presidente Figueiredo",1303536,1.15679704212483,0.344527565945718,4.02558024208651,0.740515544967217,-2.03,-60.02,196920.1,7718,63445,7692,3638,110820,164229,3.01066e-05,29732,0.76,0.22,0.002826456,0.340740741,0.79,0.110231769,1361,-2.03,-60.02,1.26121638713855
"Rio Preto da Eva",1303569,1.04812424203139,0.312161667748118,2.38935047377919,0.439526990347905,-2.69,-59.7,73711.6,4153,35577,3285,1576,77178,60715.76,7.69037e-05,29341,0.72,0.44,0.000996016,0.393404005,0.58,0.112549801,5503,-2.69,-59.7,1.14382122483472
"Santa Isabel do Rio Negro",1303601,1,0.297828878705363,1.00000000000001,0.183952498878375,-0.41,-65.01,677.3,1090,555975,3962,539,8402,157594,0.000389943,16954,0.94,0.02,0,0.199251637,0.64,0.005221932,0.38,-0.41,-65.01,1.19411067696502
"Santo Antônio do Içá",1303700,0.9999999999999,0.297828878705333,0.999999999999807,0.183952498878337,-3.1,-67.94,3461.3,297,831379,3329,435,10137,2395.99,0.000251771,21576,0.83,0.04,0.00265252,0.223701731,0.98,0.00530504,1866,-3.1,-67.94,1.16982955788729
"São Gabriel da Cachoeira",1303809,1,0.297828878705363,1,0.183952498878372,-0.12,-67.08,9826.4,3013,1,14476,2616,20350,149574,0.000302104,22117,0.95,0.01,0,0.240082966,0.58,0.042260692,0.41,-0.12,-67.08,1.18234158502914
"São Paulo de Olivença",1303908,1,0.297828878705363,0.999999999999723,0.183952498878322,-3.37,-68.87,2094.5,855,875679,6026,408,10431,875707,0.000548835,27847,0.96,0.05,0.009505703,0.237663646,0.39,0.031368821,1935,-3.37,-68.87,1.18641217686274
"São Sebastião do Uatumã",1303957,1,0.297828878705363,1.00000000000043,0.183952498878451,-2.57,-57.87,29624,410,2303.05,2443,21,12274,21247.88,4.22847e-05,13751,0.77,0.24,0,0.237410072,0.99,0.142156863,1.26,-2.57,-57.87,1.16322512018289
"Silves",1304005,1.17003652902542,0.348470667483956,2.05098996958159,0.37728473007901,-2.83,-58.2,22478.3,731,1806.94,2035,52,11586,13940.41,4.63885e-05,16359,0.88,0.12,0.003984064,0.267857143,0.98,0.061752988,2474,-2.83,-58.2,1.30099614069092
"Tabatinga",1304062,1,0.297828878705363,1,0.183952498878372,-4.25,-69.93,3353.6,1276,4032.57,8779,1070,21171,1225,0.00041918,18957,0.85,0.11,0,0.326351351,0.8,0.081524616,19484,-4.25,-69.93,1.17637247074505
"Tapauá",1304104,1.12509596152483,0.335086068656873,3.58257236524201,0.659023138998869,-5.62,-63.18,29849.7,595,869165,4047,615,18270,25765.91,0.000134403,21585,0.94,0.08,0,0.069337442,0.79,0.006427916,0.21,-5.62,-63.18,1.22069728569196
"Tefé",1304203,1.25842547760207,0.374795448928487,2.38844080702771,0.439359654875824,-3.35,-64.71,21291.4,2333,5960.32,11749,1511,40843,15540.31,0.000121597,17067,0.84,0.05,0.00109529,0.193636862,0.75,0.059145674,2618,-3.35,-64.71,1.38776234458088
"Tonantins",1304237,1,0.297828878705363,1,0.183952498878372,-2.87,-67.8,3294.2,280,636254,1361,93,4393,863167,0.00029059,14025,0.95,0.06,0,0.14057508,0.66,0.013623978,2913,-2.87,-67.8,1.18280061231221
"Uarini",1304260,1.16957322971947,0.348332683571159,2.11454947563931,0.388976660045803,-2.99,-65.1,22300.8,406,1426.9,4510,884,16401,14373.64,0.00020567,9395,0.98,0.03,0,0.15914787,0.66,0.00498132,1307,-2.99,-65.1,1.29169857601887
"Urucará",1304302,2.39540352857194,0.713420346961451,3.02609256224407,0.556657288662053,-2.53,-57.75,56099,1196,5149,2736,304,19394,24548.04,2.65833e-05,23.48,0.82,0.38,0.068965517,0.277192983,0.93,0.082101806,0.61,-2.53,-57.75,2.66424867861198
"Urucurituba",1304401,1,0.297828878705363,0.999999999999999,0.183952498878372,-3.13,-58.15,39725.5,528,1,3296,399,11513,6781.87,3.05087e-05,20483,0.63,0.1,0.001883239,0.197674419,0.94,0.050847458,7673,-3.13,-58.15,1.14083937711859
"Amajari",1400027,1.14749445627718,0.341756987233653,2.52084082410411,0.463714968868567,3.65,-61.37,384045.3,3168,18921,6745,3495,75834,56471.86,4.53452e-06,27682,0.75,0.22,0.000708215,0.221891288,0.8,0.095609065,0.41,3.65,-61.37,1.23693722010273
"Alto Alegre",1400050,1.05071405842009,0.312932989859217,3.17678569360004,0.584377666738791,2.98,-61.29,288480.3,4913,46729,6818,933,94408,111227,5.33857e-06,29779,0.76,0.08,0.005131965,0.218295218,0.49,0.059384164,0.62,2.98,-61.29,1.14809570083893
"Boa Vista",1400100,1.21459141633755,0.36174039961297,3.15294984245384,0.579993002357554,2.81,-60.67,171665.7,5876,51090,4350,3497,81309,41620,7.31785e-05,28913,0.7,0.22,0.007722008,0.396491228,0.9,0.103474903,58382,2.81,-60.67,1.32641082150032
"Bonfim",1400159,1.65271605889465,0.492226570638941,3.46067840105579,0.636600439688622,3.35,-59.83,394360.9,6206,60471.98,4657,2843,95885,95427.56,3.8627e-05,16363,0.74,0.11,0.001011122,0.386706949,0.4,0.045500506,1476,3.35,-59.83,1.80560435367201
"Cantá",1400175,1.03305758839998,0.307674383191234,2.34315671637713,0.431029533241215,2.6,-60.59,296136.8,3385,35232,8115,1834,127902,216565,7.55037e-06,18318,0.75,0.09,0.00216544,0.289687924,0.69,0.042875704,2202,2.6,-60.59,1.13164606087928
"Caracaraí",1400209,1.53471054315949,0.457081120206489,4.45306360168399,0.819152177194094,1.81,-61.12,189405.2,2374,14543,4081,1016,29583,141376.22,1.1568e-05,20308,0.82,0.07,0.000834028,0.197568389,0.87,0.078398666,0.44,1.81,-61.12,1.69882755363969
"Caroebe",1400233,1.61113014562127,0.479841084718791,3.39117435547643,0.623814996822144,0.88,-59.69,152636.8,2941,19658,3296,2786,46504,100902.42,7.25842e-06,13921,0.83,0.13,0,0.250821468,0.28,0.111583422,0.79,0.88,-59.69,1.71342384357132
"Iracema",1400282,1.65387827892032,0.492572713325995,3.28287136142528,0.603892390430424,2.18,-61.04,116539,2720,24287.98,2898,1861,47947,63060.98,1.58628e-05,16648,0.76,0.12,0,0.12295082,0.89,0.131241084,0.76,2.18,-61.04,1.78863469960127
"Mucajaí",1400308,1.65679591169104,0.493441668622572,2.75189912532524,0.506218720764784,2.43,-60.9,200144.6,4444,46844,3136,1147,78129,101557.72,4.16884e-06,17889,0.76,0.17,0.004784689,0.343032159,0.94,0.131100478,1364,2.43,-60.9,1.83268537281217
"Normandia",1400407,1.64198758636023,0.489031321693793,3.52967466613082,0.64929247506245,3.88,-59.62,23852.1,1471,6878,4245,265,22995,1044.72,1.6159e-05,12866,0.71,0.16,0,0.312151617,0.09,0.026476578,1511,3.88,-59.62,1.81637787488137
"Pacaraima",1400456,1,0.297828878705363,1,0.183952498878372,4.43,-61.14,19542.7,268,2001.42,1461,390,10838,802066,2.07479e-05,16683,0.81,0.49,0.005665722,0.278787879,0.99,0.110481586,1541,4.43,-61.14,1.19450083803655
"Rorainópolis",1400472,1.73688481016627,0.517294455452198,4.93404683698509,0.907630245246337,0.94,-60.41,208597.8,4121,27020,6454,3979,49259,153429.59,7.05173e-06,19381,0.76,0.12,0.00104221,0.239004149,0.98,0.082855654,0.84,0.94,-60.41,1.90615799084531
"São João da Baliza",1400506,1.76885043966217,0.526814743042073,3.79003006418739,0.697185501131428,0.95,-59.91,89785.6,1418,11759,2021,1391,19701,57815.34,2.04673e-05,14362,0.81,0.17,0.003891051,0.293103448,0.37,0.097276265,1807,0.95,-59.91,1.93714753322379
"São Luiz",1400605,1.82026426638962,0.542127265406263,2.8326568580616,0.52107430750539,1,-60.15,81551.5,1253,9756.08,1325,1948,19871,54322.21,1.20401e-05,11464,0.81,0.07,0,0.228991597,0.26,0.072765073,4975,1,-60.15,1.98132673520601
"Uiramutã",1400704,1,0.297828878705363,1,0.183952498878372,4.59,-60.16,19535.1,356,1149.54,7468,258,8412,707327,2.79587e-05,15772,0.97,0.05,0.000745157,0.282578875,1,0.040983607,1.22,4.59,-60.16,1.16982684158906
"Abaetetuba",1500107,1,0.297828878705363,1.39112702767136,0.25590129299739,-1.72951,-48.8743,94116.3,5333,26419,32227,1818,267249,19264,5.10965e-05,11.82,0.85,0.07,0.001275239,0.135358146,0.91,0.050797024,95243,-1.72951,-48.8743,1.1906348967423
"Abel Figueiredo",1500131,1.26691044715356,0.377322517895854,1.31648243619998,0.242170233868473,-4.95,-48.39,25917.2,241,5824.95,395,232,14619,1150.02,1.03625e-05,8113,0.85,0.02,1e-10,0.245454546,1,0.102150538,11774,-4.95,-48.39,1.42353929016712
"Acará",1500206,1.32353590818663,0.394187215461509,2.29596479657181,0.422348461666158,-1.96,-48.19,154795.4,4189,23769,19330,10488,136131,65318,2.21737e-05,10573,0.94,0.04,0.004393535,0.108505564,0.88,0.050839479,12454,-1.96,-48.19,1.44283144459946
"Afuá",1500305,1.09846604680169,0.327154911014861,1.9791410053024,0.364067933558031,-0.15,-50.38,133819.2,5623,15201.99,12128,5907,108773,120130,2.69769e-05,12572,0.97,0.02,0.004888268,0.075520833,0.89,0.047253259,4556,-0.15,-50.38,1.17628263344861
"Água Azul do Norte",1500347,1.06199421642323,0.316292546668911,2.96810191481049,0.545989764155071,-6.79,-50.46,408678.7,8355,115201,6693,8621,206088,78706,7.73172e-07,8018,0.72,0.06,0.001239157,0.206773619,0.97,0.147459727,3751,-6.79,-50.46,1.16027522035566
"Alenquer",1500404,1.65140818590037,0.491837048291564,3.40407426266739,0.626187966985219,-1.94,-54.73,302046.1,7974,24017,24238,5269,109849,106877.97,2.45977e-06,12377,0.79,0.07,0.002024292,0.140738186,0.89,0.067206478,2336,-1.94,-54.73,1.80031237655515
"Almeirim",1500503,0.999999999999957,0.29782887870535,0.999999999999938,0.183952498878361,-1.52,-52.58,181246.2,2382,1,4230,677,30891,83288.92,7.32716e-06,16314,0.76,0.24,0.006404392,0.129301356,0.77,0.028362306,0.46,-1.52,-52.58,1.17481185536224
"Altamira",1500602,0.999999999999999,0.297828878705363,2.95457467466021,0.543501394526499,-3.2,-52.2,1527792.3,17477,123669,13962,8377,299641,759660,7.3608e-07,13789,0.7,0.05,0.001540041,0.172211953,0.77,0.047227926,0.7,-3.2,-52.2,1.19171774966251
"Anajás",1500701,1.67004200187221,0.497386736808462,2.61509532119364,0.481053319138709,-0.98,-49.93,162642,657,3298.76,2900,359,17084,132335,5.20425e-05,9356,0.94,0.01,0.00060024,0.025562995,0.78,0.031212485,4118,-0.98,-49.93,1.84390612955337
"Ananindeua",1500800,1,0.297828878705363,1,0.183952498878372,-1.36,-48.37,1401.2,407,1,697,7,7176,279614,1.58099e-06,19989,0.84,0.32,0.006968641,0.14379085,0.75,0.073170732,2709.66,-1.36,-48.37,1.19355204012779
"Anapu",1500859,1.64287049283969,0.489294276740573,3.69645520011677,0.679972171053435,-3.47,-51.19,396205.5,4374,33593,7807,6515,80739,176998,2.37072e-06,12.7,0.79,0.05,0.000832293,0.141983399,0.99,0.047856846,2278,-3.47,-51.19,1.76086269243076
"Augusto Corrêa",1500909,1.20605991679013,0.359199472669087,2.15294251893441,0.396039156299483,-1.02,-46.64,38004,1657,9745.94,14588,298,47016,11108,7.8073e-05,11687,0.91,0.02,0,0.107142857,0.74,0.074483149,40982,-1.02,-46.64,1.33293838101108
"Aurora do Pará",1500958,1.80444797984463,0.537416718519285,3.89603612330072,0.716685580601575,-2.13,-47.56,122139.3,2117,19986,6430,5358,47576,22598.42,6.0516e-06,13027,0.94,0.02,0.001692047,0.115929204,0.87,0.015651438,16818,-2.13,-47.56,1.93125788485166
"Aveiro",1501006,1,0.297828878705363,2.01852818505998,0.37131330369821,-3.6,-55.33,105724.4,403,5453,4739,401,33675,69499,9.10247e-06,21408,0.94,0.01,0.00086881,0.09726776,0.91,0.025195482,0.93,-3.6,-55.33,1.15769738967171
"Bagre",1501105,1.09839646119255,0.327134186410918,1.09839646119255,0.202052773795532,-1.89,-50.16,121284.9,1242,1,3439,730,17165,118117,0.000103851,5733,0.98,0.01,0,0.041698256,0.92,0.008855586,6779,-1.89,-50.16,1.21917352881604
"Baião",1501204,1.53414863347995,0.456913767276699,3.82939090307837,0.704426025803373,-2.79,-49.67,74229.6,930,16273,12258,1830,48052,31785.13,6.88485e-06,15.22,0.88,0.04,0.00248227,0.139674895,0.96,0.035106383,12269,-2.79,-49.67,1.68051720988062
"Bannach",1501253,0.999999999999666,0.297828878705264,0.999999999999542,0.183952498878288,-7.34,-50.39,232633.2,2003,1,1544,2028,29156,28648.91,1.93658e-06,5817,0.71,0.05,0,0.113095238,0.83,0.179226069,1082,-7.34,-50.39,1.19066237878988
"Barcarena",1501303,0.999999999999913,0.297828878705337,1.60391374631391,0.295043941619815,-1.5,-48.62,21097.8,7513,27976,9453,9051,148000,7191,0.000104054,16236,0.95,0.02,0.00448718,0.154094828,0.95,0.004807692,92.47,-1.5,-48.62,1.18948911139201
"Belém",1501402,1,0.297828878705363,1.00000000000003,0.183952498878378,-1.45,-48.5,6165.8,68,1,1451,71,10819,1505.57,6.34865e-05,6623,0.89,0.03,0.004991681,0.132231405,0.92,0.011647255,1370.77,-1.45,-48.5,1.19469717715275
"Belterra",1501451,1.29395567432306,0.385377367578079,2.53583420747558,0.466473039206391,-2.63,-54.93,45837.1,2909,17268.25,1903,338,37207,18034,1.62788e-05,18564,0.77,0.15,0.005928854,0.238754325,0.9,0.12055336,3922,-2.63,-54.93,1.43383036753192
"Benevides",1501501,1,0.297828878705363,0.999999999999353,0.183952498878253,-1.36,-48.24,2803,176,6183.72,466,150,42948,1268,0.000167531,13.95,0.89,0.09,0,0.407407407,0.28,0.018957346,324715,-1.36,-48.24,1.18732178629294
"Bom Jesus do Tocantins",1501576,1.29387585252032,0.385353594340072,2.84902834297899,0.524085883066294,-5.05,-48.6,143442.8,3950,36576,4478,3973,96630,21492.65,2.44958e-06,14936,0.79,0.12,0.002318393,0.179074447,0.58,0.073415765,5864,-5.05,-48.6,1.38522440112332
"Bonito",1501600,1,0.297828878705363,2.44152316528863,0.449124287324276,-1.36,-47.3,43133.6,832,25101,2556,784,70321,8524.77,8.81418e-05,14264,0.83,0.06,0,0.110985278,0.73,0.042357274,26987,-1.36,-47.3,1.15988779124474
"Bragança",1501709,1.4094742126599,0.419782124320624,3.3767538199515,0.621162303277169,-1.06,-46.77,95009.6,3014,28389,17408,4904,94637,24468.48,1.35722e-05,15981,0.84,0.05,0.001101807,0.121766126,0.91,0.041868665,59363,-1.06,-46.77,1.52460247674249
"Brasil Novo",1501725,1.20122779562656,0.357760327441173,2.86722626766965,0.527433436787541,-3.26,-52.66,431122.9,6788,43014.42,7573,3296,124814,222184.74,2.17994e-06,9893,0.76,0.08,0.008086253,0.177207977,0.99,0.081940701,2309,-3.26,-52.66,1.28591228286584
"Brejo Grande do Araguaia",1501758,2.16707750367415,0.64541826298689,3.23285700900105,0.594692125322205,-5.69,-48.41,113066.2,3741,68110.14,2179,1939,54376,20661.52,4.69723e-06,12445,0.84,0.07,0.003289474,0.228070175,0.72,0.126644737,5574,-5.69,-48.41,2.3815060090716
"Breu Branco",1501782,1.45760927470232,0.434118135875129,5.43618600506857,1,-4,-49.46,291661.5,3295,64184,9098,2499,89268,110280,2.96334e-06,15785,0.83,0.08,0.004819277,0.1910299,0.97,0.075100402,16285,-4,-49.46,1.56874450967597
"Breves",1501808,1.31072330775801,0.390371253042553,2.61991110971833,0.481939195471897,-1.68,-50.47,235274.1,5981,8080.99,16659,2781,79384,140707,7.44496e-05,10311,0.97,0.01,0.001967729,0.038505354,0.84,0.019480519,10446,-1.68,-50.47,1.44209598452309
"Bujaru",1501907,1,0.297828878705363,1.88114120989756,0.346040626303741,-1.51,-48.04,36987.7,591,4990,7389,557,46634,18524,5.48701e-05,7983,0.95,0.04,0.003722504,0.194782609,0.76,0.063959391,28185,-1.51,-48.04,1.11199307902535
"Cachoeira do Piriá",1501956,1.35699248470812,0.404151550132223,3.86364018153067,0.710726266159455,-1.67,-46.52,125041.4,628,9320,4552,342,23785,40668,9.25248e-06,16246,0.95,0.02,0.003944773,0.12636612,0.9,0.049802761,13382,-1.67,-46.52,1.48752514213491
"Cachoeira do Arari",1502004,1.16685784267621,0.347523962892816,1.88648029030584,0.347022763486557,-1.01,-48.96,74594.2,1109,7584.64,2595,3664,39206,6275.93,6.83721e-06,12358,0.85,0.04,0,0.158108108,0.97,0.020833333,7454,-1.01,-48.96,1.26122588556227
"Cametá",1502103,1,0.297828878705364,1.27344904778705,0.234254134534711,-2.24,-49.49,96675.1,6866,20894,48246,10363,284233,53831,3.82257e-05,11669,0.92,0.03,0.00504306,0.155728393,0.92,0.051361626,43.52,-2.24,-49.49,1.17390691129306
"Canaã dos Carajás",1502152,1.15517694877317,0.344045055359397,1.93002703735857,0.355033296424931,-6.49,-49.87,131211.5,6913,59881,3467,1950,138174,17334.77,2.3181e-06,27413,0.76,0.14,0.010452962,0.267148014,0.7,0.030487805,11.45,-6.49,-49.87,1.28244447112322
"Capanema",1502202,1.38494037766294,0.412475239753135,3.71891102289454,0.684102975767775,-1.19,-47.18,25356.6,326,7816.53,3042,675,18015,4970.87,1.74155e-05,12781,0.88,0.13,0.002173913,0.137096774,0.73,0.047826087,109242,-1.19,-47.18,1.51985489661476
"Capitão Poço",1502301,1.21780775424134,0.362698317924395,2.52411469774789,0.464317206106352,-1.74,-47.06,106364,6356,30722,8399,2920,111165,21438,6.34196e-06,16521,0.91,0.13,0.002067825,0.110429448,0.93,0.054177006,18223,-1.74,-47.06,1.31624763595454
"Castanhal",1502400,0.999999999999704,0.297828878705275,2.17645916909841,0.400365102862399,-1.29,-47.92,38086.4,2053,36023.88,3461,2373,92877,13761,1.97459e-05,27999,0.74,0.14,0,0.243197279,0.7,0.042972247,189771,-1.29,-47.92,1.14416049651311
"Chaves",1502509,1.64567269218162,0.490128852628489,3.27161465218729,0.601821690636948,-0.15,-49.98,468467.5,2754,14050.4,5994,1530,45693,154366,1.93096e-06,12941,0.83,0.13,0.00116144,0.056925996,0.84,0.034262485,1763,-0.15,-49.98,1.77926525681446
"Colares",1502608,1,0.297828878705363,0.999999999999332,0.183952498878249,-0.93,-48.28,2788.4,112,2952.3,1760,56,3847,1154.41,0.000696088,6448,0.93,0.04,0.002150538,0.227586207,0.5,0.021505376,19284,-0.93,-48.28,1.20034460886461
"Conceição do Araguaia",1502707,1.82140474583477,0.542466933120596,4.36252961077919,0.802498223333726,-8.25,-49.26,344172.2,6264,55171,10171,3227,104777,70133.51,1.72034e-06,11168,0.84,0.12,0.012987013,0.248197115,0.91,0.123376623,7989,-8.25,-49.26,1.97463269620569
"Concórdia do Pará",1502756,1.5919605727514,0.474131832325697,4.75993294780651,0.875601560242504,-1.99,-47.94,35964,989,13448.52,5254,681,26514,12082.69,3.76304e-05,14935,0.87,0.07,0.005071851,0.148809524,1,0.106508876,46885,-1.99,-47.94,1.7427694494143
"Cumaru do Norte",1502764,1,0.297828878705363,1.61198759033967,0.296529145403908,-7.82,-50.77,923617.6,9618,110457.35,3939,3200,221466,311244.15,5.81687e-07,7656,0.79,0.07,0,0.203216374,0.98,0.060991105,0.77,-7.82,-50.77,1.1566527128371
"Curionópolis",1502772,0.999999999999292,0.297828878705152,0.99999999999917,0.18395249887822,-6.09,-49.54,184005.6,6041,74452.02,1483,620,187645,40186.37,1.94854e-06,26123,0.62,0.37,0.028846154,0.305389222,0.86,0.083333333,7367,-6.09,-49.54,1.18949398482082
"Curralinho",1502806,1,0.297828878705363,1,0.183952498878372,-1.81,-49.79,87923.2,1478,1,11865,788,47935,45905,0.000191229,4932,0.96,0.01,0.005100306,0.065383218,0.97,0.029921795,9258,-1.81,-49.79,1.19578426755483
"Curuá",1502855,3.35763275994898,1,4.11029915173342,0.756099800099018,-1.88,-55.11,70282.5,730,5229.34,2380,1596,13272,49752.21,1.1096e-05,10.32,0.76,0.23,0,0.14198783,0.96,0.250505051,9.78,-1.88,-55.11,3.71772143431334
"Curuçá",1502905,0.999999999999741,0.297828878705286,1.03396537989401,0.190200515385229,-0.73,-47.85,7074.5,333,14090.5,2549,580,24781,5288.22,0.000321543,21441,0.85,0.08,0.005291005,0.263392857,0.54,0.15696649,57917,-0.73,-47.85,1.18941475437969
"Dom Eliseu",1502939,0.999999999999963,0.297828878705352,1.22070297699792,0.224551363007036,-4.28,-47.5,213396.2,16713,251864,3022,15609,267009,95187,5.32141e-06,13016,0.66,0.26,0.021164021,0.371900826,0.88,0.088183422,11022,-4.28,-47.5,1.17709187695591
"Eldorado do Carajás",1502954,1.35006079591215,0.402087093030585,3.03650551941877,0.558572778155052,-6.1,-49.35,230765.4,7229,50382,8758,9598,135813,26249,1.45159e-06,13469,0.86,0.05,0,0.168640722,0.64,0.050384615,11125,-6.1,-49.35,1.46039232426995
"Faro",1503002,1,0.297828878705363,1.00000000000032,0.183952498878432,-2.17,-56.74,6478.9,12,1,333,7,2067,4973.37,3.38409e-05,15127,0.83,0.04,1e-10,0.224489796,0.89,0.058252427,0.6,-2.17,-56.74,1.19610379664357
"Floresta do Araguaia",1503044,1.13497093613985,0.338027121273709,2.28053148034501,0.419509464580258,-7.55,-49.71,207691,3477,28560.93,5084,908,100743,40724.9,2.57349e-06,6941,0.86,0.04,0.000783699,0.151125402,0.99,0.123824451,5733,-7.55,-49.71,1.23963963207244
"Garrafão do Norte",1503077,2.68056986378342,0.617074142414295,6.44651681747325,1,-1.93,-47.05,93252,1679,35002,5825,1665,42102,11805,8.16801e-06,12639,0.93,0.02,0.007236545,0.087628866,0.69,0.026684758,15862,-1.93,-47.05,3.0275296839205
"Goianésia do Pará",1503093,1.29525360860272,0.298170743667707,2.24047701697181,0.347548463830733,-3.84,-49.09,351585,3569,42396.98,4068,1702,112228,126326,2.62246e-06,13609,0.75,0.09,0,0.169513798,0.91,0.180545321,5603,-3.84,-49.09,1.47481153154654
"Gurupá",1503101,1.64994262961724,0.379821077211851,1.91114529848718,0.296461694369126,-1.4,-51.63,57188.4,1157,4846,5283,1085,28870,52835.28,5.58419e-05,14045,0.97,0.05,0.002971768,0.07946027,1,0.05423477,3801,-1.4,-51.63,1.94080039740556
"Igarapé-Açu",1503200,1.44978853452082,0.333745084845062,2.50059256586277,0.387898245931032,-1.12,-47.61,48858.4,3241,20970,5880,896,75241,13816,2.54159e-05,23421,0.81,0.07,0.002351834,0.184516129,0.79,0.054092192,48033,-1.12,-47.61,1.65629467167083
"Igarapé-Miri",1503309,1.51709277435019,0.349238695600997,2.12942606259535,0.330321958801621,-1.97,-48.95,46123.1,6451,13669.35,14786,4769,93119,15339.69,4.71894e-05,13015,0.94,0.01,0.003882993,0.068577649,0.97,0.050478902,30546,-1.97,-48.95,1.77290822826729
"Inhangapi",1503408,1.02081478316976,0.234994213506239,1.03123382909597,0.159967600844664,-1.42,-47.91,18180.6,452,1,1837,228,25767,9240.8,6.85468e-05,11815,0.87,0.3,0,0.241014799,0.9,0.018726592,24155,-1.42,-47.91,1.23342466696607
"Ipixuna do Pará",1503457,1.93246880548053,0.444859336440194,3.05564687097696,0.473999674164293,-2.55,-47.49,159821.8,19155,36979,6872,3152,125415,43997,4.82712e-06,14922,0.83,0.08,0.0009298,0.09122807,0.79,0.019525802,11933,-2.55,-47.49,2.15524308739711
"Irituia",1503507,1.76220683626967,0.405664589063504,2.12205587944766,0.329178677343373,-1.76,-47.43,77692.4,2042,17076.2,7984,429,73039,26506,1.20648e-05,16.18,0.87,0.06,0.008913413,0.139674379,0.92,0.063242784,22962,-1.76,-47.43,2.10422711260849
"Itaituba",1503606,0.999999999999949,0.230202596377514,1.59506905446706,0.247431147646064,-4.27,-55.98,341171.5,2135,28252.73,5288,1600,62626,194626,1.32464e-06,15913,0.73,0.04,0,0.158398608,0.95,0.082654978,1588,-4.27,-55.98,1.17525988797062
"Itupiranga",1503705,1.8747327097813,0.43156833730553,3.25393713339855,0.504758961394278,-5.13,-49.32,460210.3,12491,88569,13382,7947,270910,111262,8.56041e-07,13.01,0.82,0.09,0.012356842,0.164651494,0.97,0.219107896,6578,-5.13,-49.32,2.19146172153587
"Jacareacanga",1503754,1.70164500538434,0.391723098352324,1.76615468650934,0.273970383777204,-6.22,-57.75,163832.1,2663,19056.53,2286,650,46259,76798.7,5.7804e-06,8256,0.68,0.01,0,0.389952153,0.79,0.011520737,0.15,-6.22,-57.75,2.0380671984385
"Jacundá",1503804,3.02114777236026,0.69547606123751,3.99352678371161,0.619485979294613,-4.45,-49.11,132951,1668,18805.71,2408,1419,34697,26734.39,2.8493e-06,10511,0.83,0.04,0.004103967,0.173387097,0.92,0.041039672,28644,-4.45,-49.11,3.4987793592377
"Juruti",1503903,2.61526407008976,0.60204057914752,3.46775318630116,0.53792664852775,-2.15,-56.09,37763.3,874,5627.07,6664,566,21858,18095.14,1.05227e-05,9594,0.86,0.06,0.006729475,0.127196065,0.9,0.066621804,6782,-2.15,-56.09,3.05224979775085
"Limoeiro do Ajuru",1504000,1.42359845195629,0.327716059839364,2.00864957956564,0.311586805159836,-1.89,-49.38,37122.2,949,4486.14,14121,2911,62194,31693,7.86847e-05,4574,0.92,0.04,0.001311303,0.145353455,1,0.025963808,18882,-1.89,-49.38,1.667790985998
"Mãe do Rio",1504059,2.32345170111043,0.534864614153401,3.79813328395752,0.589176045219132,-2.05,-47.55,29734.2,3455,21461.4,2659,3291,34619,9012,9.36631e-06,14673,0.86,0.06,0.003740648,0.188596491,0.66,0.140897756,62323,-2.05,-47.55,2.71558006680699
"Magalhães Barata",1504109,1.50750703703659,0.347032033983215,1.66191501752189,0.257800462571862,-0.79,-47.59,11680.6,169,1792.03,1467,140,6861,8096.74,0.000395731,12545,0.77,0.08,0.006802721,0.333333333,0.69,0.034013605,25567,-0.79,-47.59,1.84035205063921
"Marabá",1504208,1.3962506276849,0.321420519686816,3.24506123995116,0.503382110344525,-5.36,-49.11,738373.8,19783,153250,16460,14745,411775,175837.91,4.83167e-07,16763,0.8,0.06,0.006220547,0.177080698,0.74,0.086145146,17953,-5.36,-49.11,1.62331238452344
"Maracanã",1504307,1.25103782566418,0.287992155634389,1.84227496320956,0.285778353701968,-0.76,-47.45,19236.2,955,5952,6155,616,42819,8396,0.000100859,21724,0.84,0.02,0.001138952,0.180327869,0.81,0.027334852,33517,-0.76,-47.45,1.43440821569245
"Marapanim",1504406,1.64927674353403,0.379667788506604,2.1818129535655,0.338448345880632,-0.71,-47.69,12328.7,411,4284,3630,192,19873,6142.03,0.000135736,15336,0.85,0.05,0.003293085,0.125845738,0.88,0.051591658,34635,-0.71,-47.69,1.96547809050422
"Marituba",1504422,1,0.230202596377526,1,0.155122530246025,-1.35,-48.34,72.5,7,1,105,11382,2518,27012,1.00889e-06,11375,0.86,0.12,2e-10,0.181818182,0.92,0.019607843,1237.22,-1.35,-48.34,1.32305319746399
"Medicilândia",1504455,1.47096544035161,0.338620063550553,2.44914046805249,0.379916866332235,-3.44,-52.88,299264.8,9313,68183,13078,3877,205267,133747,2.91044e-06,10203,0.76,0.02,0.001735609,0.153893888,0.99,0.030951692,3714,-3.44,-52.88,1.66839893064533
"Melgaço",1504505,1,0.230202596377526,0.999999999999999,0.155122530246024,-1.8,-50.71,123.6,79,2798.36,7539,27,11839,61001,0.000119865,6825,0.96,0.01,0.000568505,0.033618985,0.89,0.012507106,3971,-1.8,-50.71,1.32319351733151
"Mocajuba",1504604,1.45000807817925,0.333795624365251,2.39902211109594,0.372142379989362,-2.58,-49.5,26607.6,1096,2655,6351,471,23281,17071,0.000228351,18739,0.9,0.02,0.000675676,0.12985782,0.91,0.074324324,34769,-2.58,-49.5,1.72698102178551
"Moju",1504703,1.25292014321526,0.288425470021854,2.68938932969664,0.417184877639203,-1.88,-48.76,361046.8,9148,122859,23091,5240,282760,185956,5.24093e-06,15.65,0.9,0.07,0.00120048,0.124611973,0.78,0.073572286,8778,-1.88,-48.76,1.41895630918762
"Mojuí dos Campos",1504752,1.33127139213195,0.306462130951898,1.76892416168889,0.274399991774508,-2.68,-54.65,133125.5,3386,38349.25,4439,586,77609,65946.99,2.00094e-05,18791,0.88,0.06,0.001904762,0.116494845,0.94,0.047619048,3137,-2.68,-54.65,1.52421030261974
"Monte Alegre",1504802,2.07010367101169,0.47654323983754,4.44256655584093,0.689142164928411,-2,-54.06,202779.7,4402,19567,13415,3881,73712,51438.23,1.9537e-06,13575,0.83,0.04,0.001420118,0.151574803,0.92,0.045443787,3111,-2,-54.06,2.30216199239391
"Muaná",1504901,1.72187002038942,0.396378949318268,2.17089340396637,0.336754477717669,-1.52,-49.21,87666.1,4933,9996.94,9645,188,39946,44141,2.4057e-05,5438,0.94,0.01,0.002012882,0.102314251,0.97,0.034621578,10425,-1.52,-49.21,2.10031134790781
"Nova Esperança do Piriá",1504950,2.32138948650027,0.534389886995855,3.7523341835062,0.582071572874132,-2.26,-46.96,78956.5,6414,12295,5788,1267,38141,22688,1.50219e-05,14602,0.93,0.02,0,0.098692033,0.89,0.029027576,7.4,-2.26,-46.96,2.63432540918096
"Nova Ipixuna",1504976,2.41614879569379,0.556203726003144,4.10308460943296,0.636480866428761,-4.92,-49.07,120088.6,4050,20897,4442,1956,50166,26825.32,4.26698e-06,13745,0.82,0.11,0.004201681,0.172227232,0.99,0.056022409,10.37,-4.92,-49.07,2.6693220881697
"Nova Timboteua",1505007,2.13461569086399,0.491394074305096,2.58516178644074,0.401016837408021,-1.2,-47.38,26337.7,479,13900.42,1994,263,31111,7274.72,2.82708e-05,12024,0.83,0.06,0.002207506,0.211726384,0.89,0.055187638,30503,-1.2,-47.38,2.53727699976132
"Novo Progresso",1505031,1.00423637578998,0.23117782108361,1.53883280220446,0.238707637903536,-7.14,-55.38,841898.1,12921,102206,3979,10555,198950,474030,7.91009e-07,12497,0.54,0.09,0.002276176,0.33583691,0.95,0.036418816,0.66,-7.14,-55.38,1.19669909584342
"Novo Repartimento",1505064,1.32247591584194,0.304437389473562,2.96202655636775,0.459477054079684,-4.33,-49.79,865231.3,13727,151325,15524,8800,375636,260226,5.49335e-07,10449,0.79,0.06,0.01530236,0.127751196,0.74,0.095501475,4793,-4.33,-49.79,1.55816851571477
"Óbidos",1505106,1.44948173612474,0.33367445905772,2.38915165480209,0.370611249834377,-1.91,-55.51,241176.8,2770,18757,11811,2784,72061,130420,3.25837e-06,15115,0.78,0.03,0,0.147444022,0.9,0.076618705,1.81,-1.91,-55.51,1.64247178357165
"Oeiras do Pará",1505205,1.9059941136647,0.438764793645897,2.59089967099483,0.40190691257831,-2,-49.85,38287.7,869,3666.43,12222,1783,42568,21856,7.48771e-05,9179,0.97,0.02,0.000805369,0.088854489,0.91,0.022281879,8208,-2,-49.85,2.26608992997292
"Oriximiná",1505304,1.37817494269711,0.317259450071324,2.52529686414809,0.391730439189003,-1.76,-55.86,124183.5,3713,17429.86,10496,528,50163,59237,3.04504e-06,19898,0.92,0.03,0,0.195219124,0.85,0.027459016,0.66,-1.76,-55.86,1.55065970637014
"Ourém",1505403,1.97555975456204,0.454778984799131,2.47027624775711,0.383195501958738,-1.54,-47.11,37428.5,945,6876.48,3203,116,23331,8470.23,2.66226e-05,13184,0.91,0.06,0,0.22,0.88,0.079378775,30861,-1.54,-47.11,2.34830799094891
"Ourilândia do Norte",1505437,1.97911655427256,0.455597769327285,2.59251636810759,0.402157698725083,-6.75,-51.08,203477.9,4335,27456.27,4817,898,84745,54297,2.41874e-06,10605,0.6,0.02,0.0008285,0.172888016,0.92,0.043910522,2215,-6.75,-51.08,2.32066036815703
"Pacajá",1505486,1.01772675641618,0.234283341729883,2.51950985708849,0.390832744011366,-3.83,-50.63,807620.3,7142,52208.7,17282,5930,164173,322206,7.72849e-07,12.33,0.81,0.03,0.000452284,0.109994417,0.8,0.116689281,3.92,-3.83,-50.63,1.16366046413747
"Palestina do Pará",1505494,4.34399965828373,1,4.5362220785462,0.703670246581968,-5.74,-48.31,63368.4,2157,18154,1485,2782,32420,12031.4,9.07898e-06,12.04,0.82,0.12,0,0.214532872,0.98,0.127020785,7503,-5.74,-48.31,5.15348719833811
"Paragominas",1505502,1,0.230202596377526,1.8488224788549,0.286794020895699,-2.99,-47.35,856018.6,26670,299392,8407,19901,588487,492315,1.39606e-06,24313,0.63,0.24,0.015214385,0.165165165,0.65,0.188796681,5688,-2.99,-47.35,1.24514190835556
"Parauapebas",1505536,1.12684671011709,0.259403038388427,2.30637303727148,0.357770421232761,-6.06,-49.9,87951.4,3166,22125.86,4752,1694,94220,18943,3.96519e-06,30187,0.7,0.23,0.028527371,0.233281493,0.65,0.017733231,29386,-6.06,-49.9,1.24026136736068
"Pau D'Arco",1505551,2.43999481037504,0.561693140496022,3.2651860646584,0.506503924073871,-7.83,-50.04,123819.4,1033,9361.42,1849,329,17607,23581,4.33888e-06,12954,0.8,0.06,0,0.263779528,0.95,0.019298246,3195,-7.83,-50.04,2.89398801539653
"Peixe-Boi",1505601,1.73968093534187,0.400479068184182,3.36951481349641,0.522687663571025,-1.19,-47.31,35815.3,345,5911.38,2726,558,16623,7972.66,2.91523e-05,14579,0.91,0.24,0,0.204851752,0.7,0.121169916,17458,-1.19,-47.31,1.97002944841202
"Piçarra",1505635,2.73812113769338,0.630322595093202,2.94075135212289,0.456176790565721,-6.43,-48.87,298014.9,3958,60135.82,4378,10025,161390,40477,1.24923e-06,7154,0.82,0.07,0.006746627,0.156883671,1,0.116941529,3813,-6.43,-48.87,3.28290827148549
"Placas",1505650,1.73395717370974,0.399161443395419,2.89223695467083,0.448651114479596,-3.86,-54.22,301243.2,4852,48292,6412,6311,106588,157545,3.42044e-06,15309,0.89,0.05,0.007347539,0.165831245,0.95,0.213813373,4197,-3.86,-54.22,1.98897015132262
"Ponta de Pedras",1505700,2.04848219329333,0.471565919529255,2.69076663429833,0.417398528613936,-1.38,-48.87,41996,1244,7193.43,8393,1030,45708,22944.99,6.4269e-06,6.89,0.94,0.05,0.002111932,0.158359845,0.9,0.023583245,8984,-1.38,-48.87,2.41675013663663
"Portel",1505809,1.77780212597143,0.409254665244108,1.77780212597149,0.275777164057459,-1.93,-50.82,105276.7,1968,1,7636,1566,15745,72458,1.75607e-05,6528,0.96,0.01,0.000425894,0.031417112,0.87,0.005110733,2376,-1.93,-50.82,2.15172509414484
"Porto de Moz",1505908,1.35139671770522,0.311095033151809,2.05411476299783,0.318639479451937,-1.74,-52.23,316242.3,4330,17723.84,5703,2617,46812,166489.77,5.46305e-06,10992,0.82,0.04,0.001262626,0.098693759,0.93,0.027777778,2295,-1.74,-52.23,1.56623334389312
"Prainha",1506005,2.13574378960564,0.491653765564395,2.96640650113851,0.460156482194863,-1.79,-53.47,117118.2,1296,5958.59,4285,1115,35389,34361.13,3.1344e-06,11396,0.82,0.06,0,0.091231178,0.93,0.069364162,1966,-1.79,-53.47,2.44944628736396
"Primavera",1506104,1,0.230202596377526,1,0.155122530246025,-0.94,-47.11,4877,9,1,1133,33,3329,3453.76,0.000143942,12377,0.98,0.08,0.012886598,0.086956522,0.43,0.028350515,40735,-0.94,-47.11,1.32267077049392
"Quatipuru",1506112,1,0.230202596377526,1,0.155122530246024,-0.9,-47,1896.9,73,1,602,33408,2209,378279,0.000239822,18394,0.81,0.23,1e-10,0.144927536,0.85,0.072847682,40.59,-0.9,-47,1.28400575162173
"Redenção",1506138,1,0.230202596377526,1,0.155122530246025,-8.02,-50.03,245824.1,3690,1,2841,641,95152,66706.03,0.000100869,8747,0.68,0.05,0.001014199,0.23988006,0.99,0.082150101,21566,-8.02,-50.03,1.30224214875471
"Rio Maria",1506161,2.46833853180766,0.568217938760815,2.59176100839901,0.402040525415843,-7.31,-50.04,322054.5,7530,122397.41,3866,10598,225012,66601,1.25272e-06,7337,0.55,0.11,0.001879699,0.21802935,1,0.147556391,4303,-7.31,-50.04,2.96187419024255
"Rondon do Pará",1506187,1.66084424793743,0.382330658053876,3.11894456877716,0.483818573205809,-4.77,-48.06,364996.7,7515,78180,5495,1699,166545,72624.54,1.38099e-06,8897,0.76,0.13,0.001621622,0.20856102,0.76,0.042162162,6175,-4.77,-48.06,1.92610498404021
"Rurópolis",1506195,1,0.230202596377526,1.72293912502418,0.267266676533622,-4.09,-54.9,309901.8,2554,19992,7436,811,84887,153639,3.03401e-06,13683,0.79,0.03,0.001879699,0.135972461,0.95,0.057518797,6992,-4.09,-54.9,1.16589830620142
"Salinópolis",1506203,1,0.230202596377526,1,0.155122530246025,-0.62,-47.35,898.1,7,1,717,105,3510,456,0.000840513,14263,0.84,0.07,0.004761905,0.120481928,0.68,0.061904762,166.44,-0.62,-47.35,1.32333234743535
"Salvaterra",1506302,1.65026324543737,0.379894883806085,1.73310516338603,0.268843658126891,-0.75,-48.51,14359.9,452,5398.97,1584,67,17084,3310.98,4.07169e-05,12948,0.81,0.15,0.005813954,0.195238095,0.73,0.087209302,22228,-0.75,-48.51,1.99953321701097
"Santa Bárbara do Pará",1506351,1,0.230202596377526,1,0.155122530246025,-1.22,-48.29,8002.4,459,1,1273,14,6771,1343,0.000205373,15498,0.96,0.25,0.002237137,0.202702703,0.42,0.109619687,73671,-1.22,-48.29,1.32306381295757
"Santa Cruz do Arari",1506401,1,0.230202596377526,1,0.155122530246025,-0.66,-49.16,22626,24,1,467,7,5295,1128.37,1.2683e-05,8881,0.75,0.02,1e-10,0.137142857,1,6e-11,9144,-0.66,-49.16,1.32218444907761
"Santa Izabel do Pará",1506500,0.999999999999988,0.230202596377523,0.999999999999991,0.155122530246023,-1.29,-48.16,21497.3,1987,96496,3798,1718,581266,9336,1.37891e-05,24331,0.86,0.19,0.002473207,0.353115727,0.92,0.056059357,95917,-1.29,-48.16,1.32083467124526
"Santa Luzia do Pará",1506559,2.13715452111337,0.491978519620266,3.79328020083871,0.588423222686249,-1.51,-46.94,68166.7,587,10356,3663,696,22156,15731.06,7.03703e-06,14158,0.84,0.03,0.000884173,0.187179487,0.52,0.037135279,14244,-1.51,-46.94,2.44934296424362
"Santa Maria das Barreiras",1506583,1.29162144548103,0.297334610286627,3.72127678626365,0.577253870831013,-8.85,-49.72,798318.1,122958,381499.41,9630,4060,256208,156566.53,7.82312e-07,7908,0.69,0.06,0.003228121,0.175438597,0.82,0.082855093,2018,-8.85,-49.72,1.44179062972869
"Santa Maria do Pará",1506609,2.22111524743272,0.511306496812724,2.76452606081344,0.428840277484456,-1.35,-47.57,24952.9,1118,8572.86,3608,286,28502,5436,4.42542e-05,14209,0.86,0.1,0.001643385,0.13034188,0.84,0.039441249,52.84,-1.35,-47.57,2.64072779176716
"Santana do Araguaia",1506708,1.1846531378293,0.272710228135088,1.89935978506076,0.294633495706171,-9.5,-50.62,857863.8,21296,180013.91,5859,7348,359321,243873.39,8.46755e-07,7108,0.8,0.04,0.001950268,0.192236599,0.97,0.075572891,6105,-9.5,-50.62,1.39106707060095
"Santarém",1506807,1.47224828945807,0.338915378745619,2.4320723736685,0.377269220344913,-2.44,-54.7,180512.4,10228,69883,25288,2137,241236,73701,3.14354e-06,13763,0.85,0.08,0.004201111,0.183821623,0.86,0.056918282,16555,-2.44,-54.7,1.72325980167117
"Santarém Novo",1506906,1,0.230202596377526,0.999999999999997,0.155122530246024,-0.92,-47.39,7952,40,1067.44,684,21,3367,3254.99,0.000121708,19157,0.92,0.18,0.004291846,0.185393258,0.7,0.111587983,28434,-0.92,-47.39,1.31243522274596
"Santo Antônio do Tauá",1507003,1.0339195894177,0.23801097392954,1.2768684926611,0.198071071373017,-1.15,-48.12,19248.2,1467,33325.25,3359,346,105864,2112,8.09766e-06,27127,0.85,0.21,0.004530011,0.362831858,0.65,0.06795017,56937,-1.15,-48.12,1.23415179782641
"São Caetano de Odivelas",1507102,0.99999999999993,0.23020259637751,1.2956333027548,0.200981916194339,-0.75,-48.02,14476.3,558,6731.34,1700,298,23488,1694.29,0.000152744,31695,0.84,0.16,0.001597444,0.335195531,0.8,0.081469649,23623,-0.75,-48.02,1.26068546114944
"São Domingos do Araguaia",1507151,2.25655581308522,0.519465007043017,2.67954295599197,0.415657483236386,-5.53,-48.73,112368.6,3307,40346,3835,3394,124992,14917.86,2.88109e-06,11496,0.79,0.05,0,0.213454075,0.93,0.135826772,17853,-5.53,-48.73,2.63398289215712
"São Domingos do Capim",1507201,2.17120389061511,0.499816772884584,4.03312144521901,0.625628003371876,-1.67,-47.77,80819.1,2276,11818.91,9760,2941,57028,25958.79,2.26525e-05,11415,0.94,0.06,0.005712472,0.104253112,0.85,0.046017137,18556,-1.67,-47.77,2.4547831173744
"São Félix do Xingu",1507300,1,0.230202596377526,2.58250452692685,0.400604636588706,-6.64,-51.99,2462091.5,39540,270178,22521,24496,646400,962598,2.22939e-07,8928,0.76,0.04,0.002039216,0.164258856,0.95,0.092078431,1482,-6.64,-51.99,1.30399749550686
"São Francisco do Pará",1507409,0.999999999999942,0.230202596377513,1.00000000000075,0.155122530246141,-1.16,-47.79,35480.1,681,1,1940,552,69701,9975.22,3.18177e-05,17016,0.85,0.16,0,0.345070423,0.97,0.018950437,32225,-1.16,-47.79,1.30491418188014
"São Geraldo do Araguaia",1507458,2.568815232214,0.5913479360698,3.17506717778145,0.492524454318563,-6.4,-48.55,254156.8,8433,78191,4649,6300,175737,51719.08,1.24463e-06,9752,0.78,0.09,0.009068425,0.251572327,0.88,0.141797197,7634,-6.4,-48.55,2.97261246117893
"São João da Ponta",1507466,1,0.230202596377526,1.87315200784022,0.290568078991596,-0.85,-47.91,6958,85,1741.08,944,21606,4316,2411.94,0.000424555,19744,0.73,0.08,1e-10,0.25,0.99,0.127071823,30472,-0.85,-47.91,1.20302950696257
"São João de Pirabas",1507474,1.27730275968687,0.294038411640096,1.277302759685,0.198138435972567,-0.76,-47.17,13816,198,1,2179,279,7509,8650,0.000105516,14967,0.77,0.08,0.001919386,0.118733509,0.6,0.082533589,31.77,-0.76,-47.17,1.54579678667051
"São João do Araguaia",1507508,2.05347669111878,0.472715665896275,3.78364418447425,0.586928459446302,-5.35,-48.79,77603,2515,25938.09,5113,1360,64362,13557,5.25116e-06,16307,0.83,0.07,0.005737705,0.216666667,0.8,0.050819672,10638,-5.35,-48.79,2.30543359926372
"São Miguel do Guamá",1507607,1.8861598536148,0.434198895485181,2.66606331408201,0.413566487076504,-1.62,-47.48,72646.8,1114,11365,7019,1256,64455,10352,1.57744e-05,11693,0.91,0.06,0.002666667,0.129195694,0.79,0.022666667,51671,-1.62,-47.48,2.20550455775691
"São Sebastião da Boa Vista",1507706,1.51062972513983,0.347750884892256,1.93975114340462,0.300899105412544,-1.71,-49.54,48425.6,3155,6299.4,6956,434,33336,39634,0.000173325,5852,0.87,0.02,0.002099076,0.1395151,0.96,0.038623006,15.87,-1.71,-49.54,1.77574012322067
"Sapucaia",1507755,0.999999999999528,0.230202596377417,0.999999999999527,0.155122530245951,-6.94,-49.68,372562.2,2808,1,1126,163,89900,3375.11,3.20118e-06,6,0.77,0.03,0,0.0625,1,0.038135593,4442,-6.94,-49.68,1.30981271075526
"Senador José Porfírio",1507805,1.12873120165138,0.259836853232473,1.75944053015945,0.272928866855741,-2.59,-51.95,217455.2,3206,11135,6509,971,44061,123286.76,6.58308e-06,18887,0.88,0.03,0,0.105569007,0.85,0.01618705,0.79,-2.59,-51.95,1.26694273005343
"Soure",1507904,1.29299247585743,0.297650225038987,1.79868312775487,0.279016277888169,-0.71,-48.52,198911,259,1,555,1023,12312,16715.7,5.02188e-06,5895,0.43,0.54,1e-10,0.663551402,0.88,0.016666667,7017,-0.71,-48.52,1.59015663220272
"Tailândia",1507953,1.16886089311068,0.269074812398233,3.008167044942,0.466634483414109,-2.94,-48.95,233953.8,11994,1036267,7769,3938,101271,103046,5.418e-06,28884,0.68,0.2,0.004259851,0.153543307,0.93,0.120340788,23322,-2.94,-48.95,1.28859172717984
"Terra Alta",1507961,1,0.230202596377526,1,0.155122530246025,-1.03,-47.9,2111.5,206,1,345,22604,2492,966728,0.000174734,16793,0.97,0.02,0.009615385,0.1875,0.95,1e-10,55224,-1.03,-47.9,1.32338234827765
"Terra Santa",1507979,2.5186197666157,0.579792809562693,2.51987150241747,0.390888843349849,-2.1,-56.48,39306.6,762,1,1937,605,14193,15704.54,1.31579e-05,7183,0.78,0.03,0.003496504,0.132379249,0.99,0.064685315,9.63,-2.1,-56.48,3.0737534329164
"Tomé-Açu",1508001,2.13822486218702,0.492224914914429,3.27188765944641,0.50754349241407,-2.41,-48.15,240376.6,8034,67004,10046,6453,146706,118069,4.76162e-06,11708,0.87,0.1,0.039016393,0.151973684,0.91,0.077377049,11993,-2.41,-48.15,2.48386529148876
"Tracuateua",1508035,2.30963479024955,0.53168392539931,3.33117556856331,0.51674038288928,-1.07,-46.89,28338,1717,12609,10804,1090,41877,10018,3.51376e-05,12821,0.89,0.02,0.000976563,0.137452711,0.82,0.033854167,32226,-1.07,-46.89,2.67320598945904
"Trairão",1508050,1.76801429669295,0.407001481531304,2.05582706605943,0.318905096235399,-4.57,-55.94,139775,794,9092.1,1890,394,21737,52880.75,4.19144e-06,14541,0.82,0.01,0,0.170212766,1,0.070247934,1.54,-4.57,-55.94,2.08198230110021
"Tucumã",1508084,2.62787482365833,0.60494360736128,3.73653249025134,0.579620374234267,-6.74,-51.16,226857.7,7825,54237,6836,3691,135301,31518,1.52177e-06,9005,0.77,0.06,0.023006956,0.176600442,0.97,0.15623328,15326,-6.74,-51.16,3.01323111639909
"Tucuruí",1508100,1.54294465356539,0.355189865317575,2.8490070783618,0.441945186684316,-3.76,-49.67,139934.3,2853,11429.42,4864,1471,44126,48601.3,6.72123e-06,22049,0.71,0.08,0,0.091210614,0.9,0.014184397,52975,-3.76,-49.67,1.75494185656527
"Ulianópolis",1508126,1.00000000000001,0.230202596377529,1.00000000000001,0.155122530246026,-3.75,-47.5,330144,8630,88236.25,4835,25527,702576,179426,3.25335e-06,20182,0.72,0.31,0.003210273,0.201284797,0.88,0.045746388,11305,-3.75,-47.5,1.2698674824211
"Uruará",1508159,1.10735950892684,0.254917034078302,2.15708875857399,0.334613066195253,-3.71,-53.73,548566.8,10736,62755,11284,6791,201317,298328,2.31054e-06,16756,0.84,0.06,0.003506136,0.127807133,0.87,0.04482845,4101,-3.71,-53.73,1.25674790740787
"Vigia",1508209,0.999999999999511,0.230202596377414,0.999999999999461,0.155122530245941,-0.85,-48.14,8246.9,355,6432.61,2943,89,55317,2612.47,7.57319e-05,23197,0.89,0.06,0.002116402,0.274760383,0.91,0.075132275,96861,-0.85,-48.14,1.31021524705051
"Viseu",1508308,1.29394296029045,0.297869029023284,2.20389488992758,0.341873751721849,-1.19,-46.13,231045.3,2156,29678,16240,3062,167911,67852,4.773e-06,18586,0.89,0.06,0.004480076,0.109903382,0.67,0.099740627,12153,-1.19,-46.13,1.48832565510514
"Vitória do Xingu",1508357,1.28381295580461,0.295537075689327,2.31139218802443,0.358549004597244,-2.88,-52,180456.9,4630,28414.63,3847,1177,71095,68176,3.96734e-06,23305,0.7,0.13,0,0.230515917,0.92,0.038139535,4764,-2.88,-52,1.4046678954473
"Xinguara",1508407,3.04890444971167,0.701865720430618,3.34481406694997,0.518856021267775,-7.09,-49.94,221042.8,6679,65436.22,3025,4664,122969,37777.32,9.45404e-07,8727,0.78,0.13,0.002178649,0.143763214,0.96,0.136165577,11518,-7.09,-49.94,3.63405900079448
"Serra do Navio",1600055,1.07835762656076,0.248240725457795,1.23916625063097,0.192222604193356,0.89,-52,5243,101,1,366,26123,2179,8572.55,0.000332944,18.21,0.54,0.01,1e-10,0.5,0.63,0.157894737,0.66,0.89,-52,1.30629712321972
"Amapá",1600105,1,0.230202596377526,0.999999999999705,0.155122530245979,2.05,-50.79,196152.4,133,1,963,172,17493,137016.65,1.01437e-05,16886,0.76,0.04,0,0.236453202,0.96,4e-11,0.96,2.05,-50.79,1.32076018693143
"Pedra Branca do Amapari",1600154,1,0.230202596377526,1,0.155122530246024,0.77,-51.94,33176.8,719,1,2043,199,12788,35392.14,0.000156015,35915,0.89,0.15,0.003367003,0.357142857,0.11,0.072390572,1572,0.77,-51.94,1.30736639740042
"Calçoene",1600204,1,0.230202596377526,1.00000000000004,0.155122530246031,2.49,-50.94,138321.9,230,1,650,528,4877,66413,2.36199e-05,18617,0.74,0.17,0.004694836,0.269230769,0.86,0.093896714,0.74,2.49,-50.94,1.27236216443162
"Cutias",1600212,1,0.230202596377526,0.999999999999632,0.155122530245967,0.98,-50.8,233799.8,224,1,851,7.38,30745,107365.17,6.01699e-06,21624,0.76,0.39,1e-10,0.260869565,0.97,0.016483516,2587,0.98,-50.8,1.32166162417445
"Ferreira Gomes",1600238,1.3423069688001,0.0653545114397516,2.55734782953411,0.0944808461107855,0.85,-51.18,136946.9,13349,127188.03,1449,1954,49388,88648.55,5.19224e-05,24355,0.61,0.11,0.004424779,0.308411215,0.68,0.03539823,1462,0.85,-51.18,1.4873008979252
"Itaubal",1600253,0.9999999999997,0.0486882009546243,1,0.0369448555333975,-0.59,-50.67,60302.4,1135,1,835,5496,28140,33063.91,2.24674e-05,21137,0.88,0.04,0,0.188888889,0.95,0.013953488,3187,-0.59,-50.67,1.41542100592973
"Laranjal do Jari",1600279,1.35092219779974,0.0657739714405563,2.33855036999018,0.0863974055768606,-0.84,-52.51,30077.7,678,2767.02,1199,1881,16356,25900,7.44822e-05,20444,0.93,0.18,0.00234192,0.141772152,0.19,0.025761124,1545,-0.84,-52.51,1.65023299524783
"Macapá",1600303,1.3061286306851,0.0635930532434035,5.73249301078713,0.211786126129742,0.03,-51.06,130309.7,2214,33560,6810,891,87960,51368.34,5.9138e-06,26529,0.85,0.22,0.001094092,0.248638839,0.92,0.026258206,72993,0.03,-51.06,1.4583824856768
"Mazagão",1600402,1.22618520431648,0.0597007516353658,4.97923812316124,0.183957233126578,-0.11,-51.28,88157.2,1716,3530.44,4406,1138,35546,66093,3.48833e-05,25161,0.88,0.17,0.000855432,0.1184573,0.49,0.113772455,1533,-0.11,-51.28,1.51359640215857
"Oiapoque",1600501,1.27964475233882,0.0623036008524218,1.62147222257061,0.0599050570142882,3.84,-51.83,28868,2032,6925.39,3447,169,29187,37938.17,6.56087e-05,23045,0.8,0.02,0,0.391304348,0.15,0.01584507,1128,3.84,-51.83,1.59126033549421
"Porto Grande",1600535,1.25085993123317,0.0609021196979866,2.67761876501758,0.098924238447089,0.71,-51.41,81200.4,2209,8497,2544,354,29046,55494.29,4.17005e-05,28986,0.87,0.16,0.0067659,0.211055276,0.75,0.077131258,4655,0.71,-51.41,1.50289414321378
"Pracuúba",1600550,1,0.0486882009546389,0.999999999999998,0.0369448555333975,1.74,-50.79,65130.3,302,1634.9,554,287,6090,33093.49,3.90303e-05,23013,0.72,0.17,1e-10,0.428571429,0.79,0.062068966,0.97,1.74,-50.79,1.3353223028274
"Santana",1600600,1.00000000000001,0.0486882009546396,1.41235060271251,0.0521790889797204,-0.05,-51.18,36136.5,644,4871.97,2435,453,27948,24615,3.58201e-05,38857,0.77,0.14,0.00141844,0.313333333,0.55,0.042553191,74922,-0.05,-51.18,1.3226991502001
"Tartarugalzinho",1600709,1.46909326848455,0.0715275082770831,2.08292229100475,0.0769532631284638,1.5,-50.91,218396.3,940,5797.01,1176,477,23715,141926.65,7.85546e-06,20392,0.65,0.23,0,0.212669683,0.85,0.03058104,2.41,1.5,-50.91,1.83719889418506
"Vitória do Jari",1600808,1,0.0486882009546389,1,0.0369448555333975,-0.93,-52.42,24074.6,294,1236.2,1370,18,6672,17213.11,7.18462e-05,26102,0.83,0.1,0,0.102222222,0.27,0.132575758,5975,-0.93,-52.42,1.45638987020625
"Abreulândia",1700251,3.67956111449623,0.179151210967467,5.15136663792659,0.190316496237762,-9.62,-49.15,157432.6,2390,19061.13,1081,191,35015,45346.09,7.03453e-06,7782,0.51,0.2,0,0.374045802,0.99,0.100515464,1357,-9.62,-49.15,4.46588482607399
"Aguiarnópolis",1700301,1,0.0486882009546389,1.0000000000003,0.0369448555334087,-6.56,-47.46,15118.5,162,7583.94,764,100,16421,5276.93,3.89003e-05,16443,0.75,0.15,1e-10,0.242105263,0.84,0.088757396,27443,-6.56,-47.46,1.45849039054693
"Aliança do Tocantins",1700350,1.94463437539849,0.0946807492527004,2.57459065444199,0.0951178797859948,-11.3,-48.93,129012.6,3055,23348.68,964,587,47515,42624,6.11108e-06,16361,0.56,0.43,0,0.387434555,0.87,0.245454545,3499,-11.3,-48.93,2.25373633017186
"Almas",1700400,1.67625974655563,0.0816140713924724,2.25872013489548,0.0834480890740896,-11.57,-47.16,161888.3,1958,36312.7,1010,261,69566,68498,7.49252e-06,18082,0.67,0.18,0,0.176470588,1,0.158640227,1812,-11.57,-47.16,1.97524928423612
"Alvorada",1700707,2.66701852014528,0.129852333658577,2.68184594922558,0.0990804111569663,-12.47,-49.12,102194,3335,38874.61,565,824,102200,14056.83,0.000186336,9265,0.43,0.15,1e-10,0.676190476,0.86,0.343558282,7025,-12.47,-49.12,3.34856149909111
"Ananás",1701002,1,0.0486882009546389,0.999999999999999,0.0369448555333975,-6.36,-48.07,127447.6,1834,1,1433,1331,49234,34314.92,5.32667e-06,17671,0.78,0.05,0.005347594,0.29787234,0.89,0.029411765,6182,-6.36,-48.07,1.36860968429904
"Angico",1701051,1.89855384375359,0.0924371710678771,1.93787985495354,0.07159469128234,-6.38,-47.86,33802,7807,14935.29,543,548,13417,15070.96,2.95508e-05,12314,0.85,0.2,0.006329114,0.118644068,1,0.094936709,7577,-6.38,-47.86,2.37981469943765
"Aparecida do Rio Negro",1701101,2.30397538474955,0.112176416527228,2.69481986377243,0.0995597305556023,-9.95,-47.97,75818.5,3433,28415.23,797,797,81517,33421.06,1.41408e-05,12511,0.59,0.24,0,0.32631579,0.97,0.057553957,4073,-9.95,-47.97,2.74824845662056
"Aragominas",1701309,3.29676254815532,0.160513437444314,7.86954805507405,0.29073931600784,-7.16,-48.52,74148.8,2042,45615.2,2177,1118,55263,11336.11,5.28879e-06,10135,0.9,0.07,0.004477612,0.245614035,0.54,0.302985075,5,-7.16,-48.52,3.81212244937598
"Araguacema",1701903,2.58304708015976,0.125763915314112,8.45788034686611,0.312475167533731,-8.8,-49.55,174914.9,8597,48779.5,2629,1421,75964,55979.14,6.08601e-06,11413,0.78,0.06,0.002085506,0.190023753,0.43,0.04379562,2.52,-8.8,-49.55,2.8257202393183
"Araguaçu",1702000,1.62516345197515,0.0791262847339005,6.65237925217878,0.245771190425116,-12.93,-49.82,574950.1,7776,78566.53,2933,2523,147778,255878.27,1.39165e-06,11807,0.65,0.25,0.003171247,0.29821718,0.99,0.178646934,1682,-12.93,-49.82,1.96508581763822
"Araguaína",1702109,1.6926376720642,0.0824114831208538,7.40165141067243,0.273452942075861,-7.19,-48.2,287777.3,5076,75990.07,3346,1456,138841,75516,1.99295e-06,16998,0.71,0.18,0.003791469,0.358662614,0.63,0.060663507,43985,-7.19,-48.2,1.84448446816276
"Araguanã",1702158,1.12546303534118,0.0547967704317093,1.12546303534115,0.0415800692488581,-6.58,-48.64,48948.2,1113,1,606,1217,47643,9789.01,2.06572e-05,11061,0.77,0.17,1e-10,0.307692308,0.06,0.089655172,6752,-6.58,-48.64,1.50311527858175
"Araguatins",1702208,7.98359489760674,0.388706872715107,27.0673679883798,1,-5.65,-48.12,154753.1,4447,36729,6199,4744,96050,47345,3.18201e-06,13.46,0.8,0.13,0.000946074,0.224676314,0.45,0.076631977,13414,-5.65,-48.12,10.0706481433683
"Arapoema",1702307,2.851120894651,0.138815947064738,3.84127556883779,0.141915370954682,-7.65,-49.06,123945.3,2315,36264.97,830,1079,101687,20597.27,3.62648e-06,9285,0.67,0.41,0.004065041,0.391304348,0.96,0.130081301,4352,-7.65,-49.06,3.31432900436518
"Arraias",1702406,2.21504143450932,0.107846382486241,9.39354519563386,0.347043170199133,-12.93,-46.93,359781.6,3155,32117,3526,1488,85071,66963,2.57528e-06,13368,0.53,0.09,0,0.234693878,0.99,0.161662818,1854,-12.93,-46.93,2.4386337215623
"Augustinópolis",1702554,1.83222418673691,0.0892076993977963,2.3980087252705,0.0885940859229453,-5.46,-47.88,21653.4,664,7466.4,1164,231,22035,1724.91,8.07099e-06,13898,0.87,0.16,0,0.21641791,1,0.090261283,45798,-5.46,-47.88,2.28600438164528
"Aurora do Tocantins",1702703,3.33141201628255,0.162200457711463,3.33366032068278,0.123161598945045,-12.71,-46.4,63279,1285,24040.56,577,2195,68779,16184.17,1.04085e-05,7459,0.85,0.09,0,0.193548387,1,0.049019608,4961,-12.71,-46.4,4.2371005349324
"Axixá do Tocantins",1702901,0.999999999999849,0.0486882009546315,1.01169476872126,0.0373769170743009,-5.61,-47.76,8283.9,279,1,436,441,8223,1604.65,1.43019e-05,12301,0.84,0.13,1e-10,0.235955056,0.71,0.368421053,65081,-5.61,-47.76,1.46126985097981
"Babaçulândia",1703008,1.55927452174742,0.075918271258287,3.07387191759207,0.113563753923607,-7.2,-47.75,94775.4,937,13185.59,2079,1221,39274,29463.16,8.77919e-06,23366,0.92,0.05,0,0.179661017,1,0.091262136,6012,-7.2,-47.75,1.82424650679661
"Bandeirantes do Tocantins",1703057,3.02633515787587,0.147346814322749,3.05420261223597,0.112837074278783,-7.75,-48.58,105099.3,1539,26042.06,624,337,52374,19476.33,3.22097e-06,8758,0.46,0.29,0,0.32885906,0.83,0.202830189,2.27,-7.75,-48.58,3.75954477122628
"Barra do Ouro",1703073,1.00000000000015,0.0486882009546461,1,0.0369448555333976,-7.68,-47.68,60161.1,684,6466.98,755,94,12716,21295.17,1.74101e-05,35389,0.81,0.09,0,0.088888889,0.71,0.071428571,4107,-7.68,-47.68,1.38752743756871
"Barrolândia",1703107,1.09683825511505,0.0534030813797771,1.09683825511505,0.0405225308787294,-9.83,-48.72,48337.5,1292,1,725,401,23882,15411.73,7.4568e-06,8894,0.78,0.28,0,0.333333333,0.99,0.091666667,7911,-9.83,-48.72,1.3888093037879
"Bernardo Sayão",1703206,5.63535885855035,0.274375484556604,10.0147047230189,0.369991819201569,-7.87,-48.88,66259.2,2703,20015.55,2064,323,45266,7559.54,4.67423e-06,5358,0.89,0.05,0.001733102,0.361111111,0.99,0.31542461,4874,-7.87,-48.88,6.82693223058755
"Bom Jesus do Tocantins",1703305,1.00000000000007,0.0486882009546424,1.00000000000007,0.0369448555334002,-8.96,-48.16,59658.9,1144,14323.77,690,146,1231428,19573.28,2.44958e-06,12.78,0.62,0.23,0.057613169,0.253012048,0.98,0.242798354,3527,-8.96,-48.16,1.44213271237331
"Brasilândia do Tocantins",1703602,1,0.0486882009546389,1.15143243963074,0.042539505138625,-8.38,-48.48,39759.6,403,1,437,143,20257,9557.18,1.39622e-05,6822,0.51,0.12,1e-10,0.382978723,0.64,0.109489051,3428,-8.38,-48.48,1.37223634350051
"Brejinho de Nazaré",1703701,2.3061212760308,0.112280896113156,3.945314252502,0.145759065092541,-11,-48.56,99912.4,1821,15602.92,1292,571,89643,34044.03,7.38468e-06,12755,0.68,0.35,0.033096927,0.439215686,0.9,0.151300236,3189,-11,-48.56,2.65625846333804
"Buriti do Tocantins",1703800,1.4552687765887,0.0708544186375621,1.62982073598418,0.0602134916362713,-5.31,-48.22,19994,970,6063.91,597,535,17637,2872.49,1.75168e-05,15054,0.86,0.24,0,0.183673469,0.9,0.070093458,44.2,-5.31,-48.22,1.83799294772087
"Cachoeirinha",1703826,1.25702582905836,0.0612023261703649,1.34373171193247,0.0496439739729902,-6.12,-47.92,18616.9,77739,5720.83,426,2761,4441,6299.5,2.9465e-05,13564,0.96,0.65,0.004975124,0.361445783,1,0.074626866,6.46,-6.12,-47.92,1.62980152144251
"Campos Lindos",1703842,1.32955218771261,0.0647335040950313,5.31122896004152,0.196222586633531,-7.99,-46.86,177221.7,11957,107206.63,3219,5821,278983,56846,6.52581e-06,19611,0.78,0.12,0,0.12962963,0.97,0.102290076,3023,-7.99,-46.86,1.4815453137265
"Cariri do Tocantins",1703867,1.82996561203162,0.0890977334586744,3.10562005633449,0.1147366843229,-11.89,-49.16,92344.8,3070,41453.05,1281,1798,82089,21933.74,6.89515e-06,17554,0.55,0.51,0,0.503759399,0.5,0.178191489,3806,-11.89,-49.16,2.03480378720986
"Carmolândia",1703883,1,0.0486882009546389,1,0.0369448555333976,-7.03,-48.39,31300.2,565,1,326,29,54342,6813.41,1.35891e-05,11881,0.64,0.32,1e-10,0.153846154,0.31,0.138297872,7528,-7.03,-48.39,1.44272227243045
"Carrasco Bonito",1703891,1.00000000000007,0.0486882009546421,1.00000000000001,0.0369448555333978,-5.32,-48.03,14241.9,340,1,501,72,7035,1993.25,2.40389e-05,14417,0.83,0.03,1e-10,0.240740741,0.62,0.124324324,21017,-5.32,-48.03,1.41561382746783
"Caseara",1703909,3.20601788951113,0.156095243268685,4.3229713046397,0.159711550324937,-9.27,-49.95,145035.5,4333,111940.34,995,231,136852,25900.51,7.4577e-06,6819,0.92,0.05,0.004338395,0.25257732,1,0.117136659,3112,-9.27,-49.95,3.98840896733892
"Centenário",1704105,2.13742328098281,0.104067294229615,2.67127003271189,0.0986896854492349,-8.95,-47.33,101059.1,396,11545.05,1171,159003,12005,24970.56,3.61447e-05,12628,0.46,0.03,0,0.190140845,0.99,0.138235294,1466,-8.95,-47.33,2.56606193463859
"Chapada de Areia",1704600,1.00000000000033,0.0486882009546549,1.00000000000033,0.0369448555334098,-10.14,-49.13,53645.6,1797,1,599,332,26388,19023.76,1.43863e-05,7462,0.61,0.17,0,0.325,0.95,0.188073395,2134,-10.14,-49.13,1.31602329006525
"Chapada da Natividade",1705102,2.80840173185592,0.136736027881957,5.64507404572719,0.208556445094723,-11.61,-47.75,81959.9,1728,15011.9,1748,487,26996,24491.75,1.22572e-05,12309,0.79,0.18,0,0.096,0.91,0.191919192,2043,-11.61,-47.75,3.2382440770069
"Colinas do Tocantins",1705508,20.5388570617277,1,21.4814852918284,0.793630370749405,-8.05,-48.47,72407.9,988,23640.03,951,646,41789,14964.62,4.16591e-06,11.76,0.54,0.09,0,0.247863248,0.78,0.090673575,41286,-8.05,-48.47,27.7126661310876
"Combinado",1705557,1.00000000000001,0.0486882009546393,1,0.0369448555333975,-12.79,-46.53,9211.6,315,4274.56,467,16997,10253,758917,1.95746e-05,8564,0.93,0.3,1e-10,0.117647059,0.97,0.14893617,23257,-12.79,-46.53,1.46481649829629
"Conceição do Tocantins",1705607,1.43814479212611,0.0700206826409033,1.98110403494455,0.0731916023676573,-12.21,-47.29,168972.7,884,9065.62,1230,21,9297,49293.64,1.39678e-05,11497,0.61,0.05,0,0.242424242,0.99,0.058823529,1671,-12.21,-47.29,1.96663763241964
"Couto Magalhães",1706001,2.9697254927443,0.144590591570848,8.61945514788974,0.318444525215386,-8.28,-49.24,126322.8,3034,24012.69,2463,1966,47629,32074.09,7.43763e-06,11068,0.75,0.24,0.08627451,0.261437909,0.84,0.247058824,3487,-8.28,-49.24,3.25991326959296
"Cristalândia",1706100,2.88064223291715,0.14025328791469,6.9848622171927,0.258054725534871,-10.6,-49.19,142559.8,4722,32162.52,1865,2040,57979,43278.67,4.83211e-06,10625,0.65,0.46,0,0.387283237,0.68,0.18426501,3.99,-10.6,-49.19,3.1354933728439
"Crixás do Tocantins",1706258,1,0.0486882009546389,0.999999999999589,0.0369448555333824,-11.1,-48.91,90058.8,1975,17284.54,483,1065,503648,30431.89,9.24659e-06,20112,0.59,0.3,1e-10,0.274193548,0.62,0.268571429,1731,-11.1,-48.91,1.39472678039748
"Darcinópolis",1706506,1.73015686702792,0.0842382252249039,2.66353937683633,0.0984040774847338,-6.71,-47.75,62880.9,2822,35803,1231,3040,80530,19600.96,1.38475e-05,18783,0.82,0.12,0,0.092105263,0.62,0.149659864,3653,-6.71,-47.75,2.00018433214682
"Dianópolis",1707009,1.54456881762302,0.0752022769806984,2.9777819994032,0.110013725777903,-11.62,-46.82,97898.3,4493,17683,1581,2728,27152,24148.64,9.59584e-06,23342,0.7,0.3,0.002207506,0.304195804,0.89,0.121412804,6757,-11.62,-46.82,1.76248788660888
"Divinópolis do Tocantins",1707108,3.92422803502038,0.1910636031609,8.9930461585648,0.332246791133352,-9.8,-49.21,189159.4,10467,149368.48,1710,881,54872,56374.11,3.98413e-06,6644,0.7,0.05,0.002770083,0.268292683,1,0.220221607,2926,-9.8,-49.21,4.53080581290989
"Dois Irmãos do Tocantins",1707207,3.51013133596962,0.170901979862864,17.3136468975786,0.639650183387298,-9.25,-49.06,292033.9,6324,46121,3875,1201,68204,88937.99,2.9647e-06,6439,0.59,0.01,0,0.177419355,0.89,0.179775281,1939,-9.25,-49.06,4.1690773390028
"Dueré",1707306,2.24473744688887,0.109292227904528,5.09829288058445,0.188355693940142,-11.34,-49.27,257800.9,5557,44507.3,1552,1978,113762,84803.89,2.45689e-06,11325,0.46,0.15,0,0.407284768,0.91,0.144869215,1.38,-11.34,-49.27,2.52484445413381
"Esperantina",1707405,1.7082405601844,0.0831711596731231,1.88497903061666,0.0696402779696162,-5.34,-48.51,27205.3,833,4894.35,1081,114,11835,3578.14,2.28765e-05,15385,0.88,0.05,0,0.128133705,0.98,0.07826087,21414,-5.34,-48.51,2.12175432137882
"Fátima",1707553,5.7810595118854,0.281469387245403,6.4831213770354,0.239517982680054,-10.76,-48.9,36854.3,472,3420.17,1073,140,4157,5822,2.57516e-05,4956,0.65,0.12,0,0.181818182,1,0.255813953,10.13,-10.76,-48.9,7.39964901305672
"Figueirópolis",1707652,3.12136947622142,0.151973864311944,6.68711487026152,0.247054492817046,-12.13,-49.17,166562.6,3538,52180.96,1344,3035,102622,46060.66,4.75421e-06,7811,0.65,0.1,0,0.561959654,0.87,0.16481069,2773,-12.13,-49.17,3.49993435353566
"Filadélfia",1707702,2.79283087367642,0.135977910809877,5.44107277901921,0.201019647767566,-7.33,-47.49,122899.2,960,13033.34,1945,1023,29241,29717.08,2.52792e-05,12339,0.8,0.05,0,0.183856502,0.98,0.265423242,4473,-7.33,-47.49,3.25259247557138
"Formoso do Araguaia",1708205,1.44385405025346,0.0702986561479099,9.61420628840226,0.355195462393304,-11.79,-49.52,549527,20657,155001.35,4079,6880,280183,184052.22,1.09106e-06,12998,0.65,0.21,0.006352087,0.33431085,0.58,0.246823956,1392,-11.79,-49.52,1.64068235234244
"Tabocão",1708254,0.999999999999145,0.0486882009545973,0.999999999999145,0.036944855533366,-9.05,-48.51,30163,533,9585.36,419,145,15574,11953.86,1,9131,0.65,0.15,0.009433962,0.275,0.95,0.056603774,4157,-9.05,-48.51,1.45290213362107
"Goianorte",1708304,4.78197355777323,0.232825689540633,10.2903910006262,0.380177008900309,-8.77,-48.93,121751.2,2871,16148.06,1769,229,28327,19185.85,4.73136e-06,6548,0.83,0.04,0.00286533,0.265463918,0.95,0.166189112,2861,-8.77,-48.93,5.61037184642517
"Goiatins",1709005,7.17580162957305,0.349376871751278,22.318612059456,0.824557898242545,-7.71,-47.31,211892.7,2237,27353.15,3931,7108,62247,87091.81,6.52134e-06,17.39,0.82,0.07,0.00110011,0.192118227,0.95,0.063806381,2024,-7.71,-47.31,9.29547909536266
"Guaraí",1709302,2.79225433851186,0.135949840349928,7.77076297432364,0.287089715470661,-8.83,-48.5,130452.3,3047,35990.18,2267,2904,64235,41280.42,3.97385e-06,11097,0.73,0.2,0.010324484,0.331412104,0.85,0.162241888,11305,-8.83,-48.5,3.04780105877405
"Gurupi",1709500,1.52366749885709,0.0741846293724058,3.3311024160699,0.123067097528654,-11.72,-49.06,129429.2,3990,65479,1642,1267,133757,39876,4.7472e-06,20242,0.62,0.34,0.003194888,0.444852941,0.81,0.143769968,46579,-11.72,-49.06,1.66138100743338
"Ipueiras",1709807,0.99999999999981,0.0486882009546297,1,0.0369448555333975,-11.23,-48.46,44384.1,419,1,562,153,12329,15574.41,2.42668e-05,8252,0.59,0.06,1e-10,0.268907563,0.96,0.093567251,2398,-11.23,-48.46,1.40610779083905
"Itacajá",1710508,2.03179625226311,0.0989245042290685,5.25487751136496,0.194140690503078,-8.39,-47.76,115121.4,3229,25933.95,2266,887,37548,42344.1,6.12023e-06,17365,0.78,0.08,0.005484461,0.25,0.99,0.129798903,2444,-8.39,-47.76,2.28339473373968
"Itaguatins",1710706,2.04555742223346,0.0995945108379557,3.22673571381827,0.11921128479147,-5.76,-47.48,36207.9,868,6070.65,1340,366,24406,12398.94,8.48267e-06,15107,0.79,0.08,0.008421053,0.223744292,0.76,0.176842105,8083,-5.76,-47.48,2.46473243475643
"Itapiratins",1710904,2.27619171965192,0.110823679857698,4.12569316374671,0.152423137909748,-8.38,-48.11,100866.8,3038,31976.29,1371,1032,71615,33559.58,7.75823e-06,13588,0.77,0.02,0,0.223463687,0.91,0.192307692,3032,-8.38,-48.11,2.50032110317975
"Itaporã do Tocantins",1711100,4.69313445635813,0.228500273518305,6.94976221419399,0.256757960994862,-8.57,-48.68,84152,2426,39183.49,1054,2298,38906,16119.19,4.66735e-06,6313,0.68,0.1,0,0.255813954,0.86,0.151943463,2533,-8.57,-48.68,5.28868041575094
"Jaú do Tocantins",1711506,1,0.0486882009546389,1,0.0369448555333975,-12.65,-48.59,160558,2242,1,1518,302,27759,45440.68,5.06567e-06,10589,0.81,0.08,0,0.187702265,1,0.227564103,1758,-12.65,-48.59,1.41818847708775
"Juarina",1711803,4.6017953288623,0.224053135723766,4.6023133170011,0.170031800616037,-8.11,-49.06,38816.7,705,4518.6,1112,51,9314,5249.06,1.71966e-05,6267,0.85,0.02,0,0.261146497,0.72,0.341853035,4634,-8.11,-49.06,6.09676473078637
"Lagoa da Confusão",1711902,1.65832026684113,0.0807406303991113,5.0797451658788,0.187670451299867,-10.79,-49.62,330397.5,14176,187292.97,1713,6914,350706,72478.03,1.22816e-06,10726,0.69,0.18,0,0.245901639,0.38,0.17755102,1212,-10.79,-49.62,1.9528462735858
"Lagoa do Tocantins",1711951,3.14989863931595,0.153362897937758,4.66264646822327,0.172260800171815,-10.37,-47.55,57289,734,6402.82,1304,1422,10572,13341.33,3.32863e-05,11272,0.61,0.32,0,0.232142857,0.98,0.015037594,4599,-10.37,-47.55,3.86748910145965
"Lajeado",1712009,1.0000000000013,0.048688200954702,1,0.0369448555333975,-9.75,-48.35,8628.1,212,1,452,159,5270,3565.14,7.60457e-05,18116,0.63,0.29,1e-10,0.285714286,0.9,0.088,9588,-9.75,-48.35,1.46446771247916
"Lavandeira",1712157,3.91969533742402,0.190842914269462,5.05698039516276,0.186829410134512,-12.78,-46.5,25886.8,403,7866.51,1283,364,7944,6253.3,2.28727e-05,6896,0.06,0.02,1e-10,5e-09,1,0.127071823,3608,-12.78,-46.5,4.86743151874178
"Lizarda",1712405,1.00000000000047,0.048688200954662,1,0.0369448555333975,-9.59,-46.67,131843.2,425,1,1508,43,14721,25828.76,2.15054e-05,9865,0.3,0.01,0,0.14375,0.94,0.011214953,0.66,-9.59,-46.67,1.45204858553348
"Luzinópolis",1712454,1.00000000000145,0.0486882009547097,1.20471785658128,0.0445081271698998,-6.18,-47.85,11919.8,62261,1,475,51,7581,3183.92,4.93939e-05,20.81,0.92,0.54,0,0.4375,1,0.037209302,10867,-6.18,-47.85,1.46081728813613
"Marianópolis do Tocantins",1712504,2.55492474201217,0.124394689263067,7.11962513734984,0.263033522151336,-9.79,-49.65,176021.7,3358,45491.51,2136,1299,88222,39325.05,4.00178e-06,11733,0.82,0.16,0.002985075,0.294520548,0.54,0.137313433,2417,-9.79,-49.65,2.80431363440905
"Mateiros",1712702,1,0.0486882009546389,1.00000000000045,0.036944855533414,-10.54,-46.42,124847.1,3368,1,674,2089,88323,43042.35,1.41724e-05,9273,0.85,0.06,0,0.054794521,0.96,0.046296296,0.27,-10.54,-46.42,1.43885571358897
"Maurilândia do Tocantins",1712801,1,0.0486882009546389,5.2358223129858,0.1934366989518,-5.95,-47.5,12317.4,62,5135.71,1274,243,10587,4505.05,2.264e-05,14.12,0.57,0.05,0,0.202380952,0.97,0.042763158,4619,-5.95,-47.5,1.46334888605736
"Miracema do Tocantins",1713205,1.5966225595783,0.0777366800294581,5.27920963233938,0.195039637197299,-9.56,-48.39,161317.8,3254,37255,2772,2122,79491,55084,3.4814e-06,21031,0.7,0.25,0.006385696,0.311239193,0.86,0.131545338,7174,-9.56,-48.39,1.73649185847451
"Miranorte",1713304,2.36749941515504,0.115269287285058,4.33605440790424,0.160194903684974,-9.52,-48.59,75100.2,2771,25028.76,1501,1381,55839,23625.96,5.90169e-06,13819,0.79,0.13,0.005952381,0.201612903,0.83,0.138888889,13014,-9.52,-48.59,2.65315537723244
"Monte do Carmo",1713601,2.07094843997839,0.100830753812364,7.62458980909601,0.281689368998467,-10.76,-48.1,200395.1,4510,48247.94,2830,1320,284328,28747.92,5.36832e-06,9433,0.55,0.06,0,0.283975659,0.93,0.092548077,2148,-10.76,-48.1,2.48120595488439
"Monte Santo do Tocantins",1713700,4.83414592448254,0.235365868215254,7.46909379468542,0.275944591210049,-10,-48.99,84246.9,1428,12281.86,1180,670,21087,29321.81,7.10645e-06,6282,0.6,0.02,0,0.166666667,1,0.123393316,2074,-10,-48.99,5.72460226390721
"Palmeiras do Tocantins",1713809,2.55100230008653,0.124203712622359,3.66843703106363,0.135529876146011,-6.61,-47.54,53638,615,12439.67,2016,291,25848,18942.16,1.43755e-05,13316,0.85,0.06,0,0.292035398,0.81,0.06959707,8738,-6.61,-47.54,3.17188718188704
"Muricilândia",1713957,3.25393161436847,0.158428076333025,3.28522035479997,0.121371991403462,-7.14,-48.61,79212.6,1460,20996.49,665,168,52654,19491.96,7.56561e-06,7987,0.75,0.15,0,0.32460733,0.94,0.052845528,2955,-7.14,-48.61,4.1739674229481
"Natividade",1714203,2.50601923684402,0.122013568199653,3.28003008287408,0.121180237556981,-11.71,-47.72,150891.6,1073,6288.65,1083,114,17093,51880.56,1.11905e-05,12563,0.61,0.15,0.013927577,0.16025641,0.99,0.114206128,2873,-11.71,-47.72,3.18877638670798
"Nazaré",1714302,0.999999999998171,0.0486882009545498,1.72094203388297,0.0635799548231577,-6.37,-47.66,15448.5,280,5233.83,699,49,7250,2888.51,5.13848e-05,9624,0.77,0.27,0.010695187,0.266129032,0.99,0.22459893,10255,-6.37,-47.66,1.46274969146593
"Nova Olinda",1714880,2.39526321944817,0.116621056967748,3.72499228536203,0.13761930184572,-7.63,-48.42,106192.5,2312,28529.7,1891,84,47510,24955,4.14863e-05,12439,0.79,0.08,0.004172462,0.344444444,0.82,0.098748261,7.48,-7.63,-48.42,3.00379245239653
"Nova Rosalândia",1715002,3.20970848803471,0.156274931871244,4.32990281030484,0.159967633800364,-10.56,-48.91,43070.3,1414,13828.85,1017,334,28536,12737.82,1.78189e-05,9168,0.72,0.06,0,0.506666667,0.73,0.076666667,8.14,-10.56,-48.91,3.8451623140244
"Novo Acordo",1715101,1.94937090095539,0.0949113621608416,1.97253727258092,0.0728751045697441,-9.96,-47.67,88798.3,2210,11517.03,633,763,24589,59556,3.09545e-05,13459,0.55,0.11,0.005076142,0.345679012,0.98,0.025380711,1595,-9.96,-47.67,2.43284609635082
"Novo Alegre",1715150,1.00000000000056,0.048688200954666,1,0.0369448555333975,-12.93,-46.57,11890.7,499,5401.71,873,47,9491,962254,2.07242e-05,8802,0.18,0.16,1e-10,0.333333333,0.95,0.252336449,11759,-12.93,-46.57,1.45089513191896
"Novo Jardim",1715259,1,0.0486882009546389,1.03724779668437,0.0383209700008389,-11.82,-46.62,53508.4,359,4509.36,427,260,8899,19039.88,3.8563e-05,18741,0.56,0.24,1e-10,0.227272727,0.9,0.114942529,2059,-11.82,-46.62,1.35475091643736
"Oliveira de Fátima",1715507,1,0.0486882009546389,1.01951772089555,0.0376659349122247,-10.7,-48.9,15586.1,317,1,485,36,3917,3620.08,4.07918e-05,7768,0.24,1,1e-10,0.438356164,1,0.012195122,5392,-10.7,-48.9,1.45763475742968
"Palmeirante",1715705,2.90407827825497,0.141394346799679,8.15215913083171,0.301180341373845,-7.86,-47.92,165012.8,2958,36159.48,2280,662,51390,49536.74,6.92469e-06,10684,0.77,0.1,0.001381216,0.247058824,0.7,0.059392265,2219,-7.86,-47.92,3.27225990353538
"Palmeirópolis",1715754,1.53771985215972,0.423009126559936,2.63991470169974,0.263373014554937,-13.04,-48.4,136426.1,2983,20803.14,1727,4213,33339,48223,7.12726e-06,14954,0.66,0.07,0,0.252747253,0.98,0.129824561,4511,-13.04,-48.4,1.63574935372248
"Paraíso do Tocantins",1716109,1.09006627825549,0.299864753394235,1.34568205440517,0.134252951079432,-10.17,-48.86,109184.5,1922,16014.54,1532,232,44779,36753.84,5.13611e-06,9454,0.73,0.09,0,0.414285714,0.96,0.108974359,39714,-10.17,-48.86,1.16881101528457
"Paranã",1716208,1.20606767910247,0.331775410711361,2.22513012608326,0.221991729015421,-12.61,-47.88,479136.7,2098,17154.32,4808,815,40245,174971.25,3.61152e-06,15369,0.57,0.07,0,0.134313726,0.97,0.114363513,0.94,-12.61,-47.88,1.27196262576537
"Pau D'Arco",1716307,0.999999999999938,0.275088551380667,1,0.0997657289401665,-7.53,-49.37,117140.1,2572,48243.94,1560,1736,101938,26808.6,4.33888e-06,7851,0.79,0.18,0.009501188,0.274038462,0.8,0.16152019,3523,-7.53,-49.37,1.08645024112989
"Pedro Afonso",1716505,1.0000000000003,0.275088551380766,1.0000000000001,0.0997657289401765,-8.96,-48.17,129212.8,15487,102870.26,2254,1694,258577,51986.4,3.12486e-06,12852,0.6,0.12,0.053191489,0.40234375,0.86,0.071808511,6608,-8.96,-48.17,1.16820675156153
"Peixe",1716604,1.00000000000037,0.275088551380785,1.19672822934486,0.119392464143864,-12.02,-48.53,366221.7,7741,91316.06,2873,2226,206234,106954.44,2.04962e-06,15916,0.59,0.21,0,0.191489362,0.6,0.223847019,2191,-12.02,-48.53,1.11142090219577
"Pequizeiro",1716653,1.78415662028631,0.490801060110817,2.15921951503232,0.215416108859033,-8.59,-48.93,104224.8,3235,23804.34,2248,2856,47105,14376.59,4.63999e-06,6406,0.89,0.01,0,0.25,0.79,0.143765903,4507,-8.59,-48.93,1.89341794573453
"Colméia",1716703,1.39208630554786,0.382947005190048,1.44348264080607,0.144010097872494,-8.72,-48.76,85939.2,1560,17976.57,1314,368,36960,18530.78,5.29483e-06,5303,0.85,0.04,0.001443001,0.266666667,0.99,0.255411255,8488,-8.72,-48.76,1.50761692288763
